[
  {
    "address": {
      "addressCountry": "US",
      "addressLocality": "Tinley Park",
      "addressRegion": "IL",
      "postalCode": "60477",
      "streetAddress": "8301 W. 159th St"
    },
    "faxNumber": "7084681209",
    "geo": {
      "latitude": "41.601866",
      "longitude": "-87.821108"
    },
    "id": "35745",
    "name": "MINI of Tinley Park",
    "telephone": "8558095678",
    "url": "www.minioftinleypark.com"
  },
  {
    "address": {
      "addressCountry": "US",
      "addressLocality": "Chicago",
      "addressRegion": "IL",
      "postalCode": "60614",
      "streetAddress": "1111 W Diversey Parkway"
    },
    "faxNumber": "7739695719",
    "geo": {
      "latitude": "41.932599",
      "longitude": "-87.656605"
    },
    "id": "34752",
    "name": "MINI of Chicago",
    "telephone": "8777930218",
    "url": "www.miniofchicago.com"
  },
  {
    "address": {
      "addressCountry": "US",
      "addressLocality": "Plano",
      "addressRegion": "TX",
      "postalCode": "75093",
      "streetAddress": "1645 Dallas Pkwy"
    },
    "faxNumber": "9725887490",
    "geo": {
      "latitude": "33.021907",
      "longitude": "-96.830104"
    },
    "id": "35682",
    "name": "MINI of Plano",
    "telephone": "8886074233",
    "url": "www.miniofplano.com"
  },
  {
    "address": {
      "addressCountry": "US",
      "addressLocality": "Mount Laurel",
      "addressRegion": "NJ",
      "postalCode": "08054",
      "streetAddress": "1311 Route 73"
    },
    "faxNumber": "8568134620",
    "geo": {
      "latitude": "39.916994",
      "longitude": "-74.943388"
    },
    "id": "31638",
    "name": "MINI of Mt. Laurel",
    "telephone": "8567783000",
    "url": "www.miniofmtlaurel.com"
  },
  {
    "address": {
      "addressCountry": "US",
      "addressLocality": "Des Moines",
      "addressRegion": "IA",
      "postalCode": "50325",
      "streetAddress": "9900 Hickman Road"
    },
    "faxNumber": "5152539813",
    "geo": {
      "latitude": "41.614023",
      "longitude": "-93.754331"
    },
    "id": "35298",
    "name": "MINI of Des Moines",
    "telephone": "8007247365",
    "url": "www.miniofdesmoines.com"
  },
  {
    "address": {
      "addressCountry": "US",
      "addressLocality": "Oakhurst",
      "addressRegion": "NJ",
      "postalCode": "07755",
      "streetAddress": "2127 Highway 35"
    },
    "faxNumber": "7329189002",
    "geo": {
      "latitude": "40.269768",
      "longitude": "-74.041849"
    },
    "id": "35485",
    "name": "MINI of Monmouth",
    "telephone": "7324935055",
    "url": "www.miniofmonmouth.com"
  },
  {
    "address": {
      "addressCountry": "US",
      "addressLocality": "Appleton",
      "addressRegion": "WI",
      "postalCode": "54913",
      "streetAddress": "2986 Victory Lane"
    },
    "faxNumber": "9209681100",
    "geo": {
      "latitude": "44.289755",
      "longitude": "-88.470148"
    },
    "id": "35300",
    "name": "MINI of the Fox Valley",
    "telephone": "9209686464",
    "url": "www.miniofthefoxvalley.com"
  },
  {
    "address": {
      "addressCountry": "US",
      "addressLocality": "League City",
      "addressRegion": "TX",
      "postalCode": "77573",
      "streetAddress": "300 Gulf Fwy South"
    },
    "faxNumber": "2815577188",
    "geo": {
      "latitude": "29.5002",
      "longitude": "-95.111175"
    },
    "id": "28628",
    "name": "MINI of Clear Lake",
    "telephone": "8882142562",
    "url": "www.miniclearlake.com"
  },
  {
    "address": {
      "addressCountry": "US",
      "addressLocality": "Lake Bluff",
      "addressRegion": "IL",
      "postalCode": "60044",
      "streetAddress": "409A Skokie Hwy"
    },
    "faxNumber": "8476151369",
    "geo": {
      "latitude": "42.276817",
      "longitude": "-87.869033"
    },
    "id": "52800",
    "name": "Knauz MINI",
    "telephone": "8772198237",
    "url": "www.knauz-mini.com"
  },
  {
    "address": {
      "addressCountry": "US",
      "addressLocality": "Murray",
      "addressRegion": "UT",
      "postalCode": "84107",
      "streetAddress": "4767 South State Street"
    },
    "faxNumber": "8012669039",
    "geo": {
      "latitude": "40.6679649",
      "longitude": "-111.8879"
    },
    "id": "55806",
    "name": "MINI of Murray",
    "telephone": "8012629475",
    "url": "www.miniofmurray.com"
  },
  {
    "address": {
      "addressCountry": "US",
      "addressLocality": "Cordova",
      "addressRegion": "TN",
      "postalCode": "38018",
      "streetAddress": "405 N Germantown Pkwy"
    },
    "faxNumber": "9013652531",
    "geo": {
      "latitude": "35.135813",
      "longitude": "-89.79615"
    },
    "id": "56802",
    "name": "Roadshow MINI",
    "telephone": "8772209129",
    "url": "www.roadshowmini.com"
  },
  {
    "address": {
      "addressCountry": "US",
      "addressLocality": "New York",
      "addressRegion": "NY",
      "postalCode": "10019",
      "streetAddress": "793 11th Ave"
    },
    "faxNumber": "2129747403",
    "geo": {
      "latitude": "40.769086",
      "longitude": "-73.99236"
    },
    "id": "65775",
    "name": "MINI of Manhattan",
    "telephone": "8772098598",
    "url": "www.mininyc.com"
  },
  {
    "address": {
      "addressCountry": "US",
      "addressLocality": "Golden Valley",
      "addressRegion": "MN",
      "postalCode": "55426",
      "streetAddress": "705 Louisiana Avenue South"
    },
    "faxNumber": "9528304810",
    "geo": {
      "latitude": "44.973995",
      "longitude": "-93.370442"
    },
    "id": "30414",
    "name": "Motorwerks MINI",
    "telephone": "8888665870",
    "url": "www.motorwerksmini.com"
  },
  {
    "address": {
      "addressCountry": "US",
      "addressLocality": "Williamsville",
      "addressRegion": "NY",
      "postalCode": "14221",
      "streetAddress": "8240 Main Street"
    },
    "faxNumber": "7165052110",
    "geo": {
      "latitude": "42.965388",
      "longitude": "-78.687021"
    },
    "id": "66730",
    "name": "Towne MINI",
    "telephone": "7165046464",
    "url": "www.townemini.com"
  },
  {
    "address": {
      "addressCountry": "US",
      "addressLocality": "Bedford",
      "addressRegion": "NH",
      "postalCode": "03110",
      "streetAddress": "209 S. River Rd."
    },
    "faxNumber": "6036372911",
    "geo": {
      "latitude": "42.943707",
      "longitude": "-71.473587"
    },
    "id": "35023",
    "name": "MINI of Bedford",
    "telephone": "6036372900",
    "url": "www.minibedford.com"
  },
  {
    "address": {
      "addressCountry": "US",
      "addressLocality": "Exton",
      "addressRegion": "PA",
      "postalCode": "19341",
      "streetAddress": "305 W Lincoln Hwy"
    },
    "faxNumber": "6104552825",
    "geo": {
      "latitude": "40.026494",
      "longitude": "-75.63916"
    },
    "id": "67600",
    "name": "Otto's MINI",
    "telephone": "8776885787",
    "url": "www.ottosmini.com"
  },
  {
    "address": {
      "addressCountry": "US",
      "addressLocality": "Charleston",
      "addressRegion": "SC",
      "postalCode": "29407",
      "streetAddress": "1518 Savannah Hwy"
    },
    "faxNumber": "8435564604",
    "geo": {
      "latitude": "32.7858",
      "longitude": "-80.0081"
    },
    "id": "46826",
    "name": "MINI of Charleston",
    "telephone": "8665403259",
    "url": "www.miniofcharleston.com"
  },
  {
    "address": {
      "addressCountry": "US",
      "addressLocality": "Jacksonville",
      "addressRegion": "FL",
      "postalCode": "32225",
      "streetAddress": "9881 Atlantic Blvd"
    },
    "faxNumber": "9043714865",
    "geo": {
      "latitude": "30.32265",
      "longitude": "-81.54255"
    },
    "id": "46778",
    "name": "Tom Bush MINI",
    "telephone": "8775570033",
    "url": "www.tombushmini.com"
  },
  {
    "address": {
      "addressCountry": "US",
      "addressLocality": "Annapolis",
      "addressRegion": "MD",
      "postalCode": "21409",
      "streetAddress": "31 Old Mill Bottom Rd N"
    },
    "faxNumber": "4103492146",
    "geo": {
      "latitude": "39.0237",
      "longitude": "-76.477462"
    },
    "id": "32146",
    "name": "MINI of Annapolis",
    "telephone": "8665858975",
    "url": "www.myminiannapolis.com"
  },
  {
    "address": {
      "addressCountry": "US",
      "addressLocality": "West Palm Beach",
      "addressRegion": "FL",
      "postalCode": "33409",
      "streetAddress": "2901 Okeechobee Blvd"
    },
    "faxNumber": "5616975254",
    "geo": {
      "latitude": "26.7072",
      "longitude": "-80.0968"
    },
    "id": "46891",
    "name": "Braman MINI of Palm Beach",
    "telephone": "8772788175",
    "url": "www.bramanmini.com"
  },
  {
    "address": {
      "addressCountry": "US",
      "addressLocality": "San Antonio",
      "addressRegion": "TX",
      "postalCode": "78216",
      "streetAddress": "8434 Airport Blvd"
    },
    "faxNumber": "2107852811",
    "geo": {
      "latitude": "29.5157276",
      "longitude": "-98.4764135"
    },
    "id": "42164",
    "name": "MINI of San Antonio",
    "telephone": "8772919332",
    "url": "www.miniofsanantonio.com"
  },
  {
    "address": {
      "addressCountry": "US",
      "addressLocality": "Coconut Creek",
      "addressRegion": "FL",
      "postalCode": "33073",
      "streetAddress": "4401 W Sample Rd"
    },
    "faxNumber": "9549352766",
    "geo": {
      "latitude": "26.274025",
      "longitude": "-80.184316"
    },
    "id": "46697",
    "name": "Vista MINI",
    "telephone": "8772132629",
    "url": "www.vistamini.com"
  },
  {
    "address": {
      "addressCountry": "US",
      "addressLocality": "Tacoma",
      "addressRegion": "WA",
      "postalCode": "98424",
      "streetAddress": "3901 20th St E"
    },
    "faxNumber": "2535176464",
    "geo": {
      "latitude": "47.23933",
      "longitude": "-122.374589"
    },
    "id": "46038",
    "name": "Northwest MINI",
    "telephone": "8772713180",
    "url": "www.northwestmini.com"
  },
  {
    "address": {
      "addressCountry": "US",
      "addressLocality": "Latham",
      "addressRegion": "NY",
      "postalCode": "12110",
      "streetAddress": "1111 Troy Schenectady Road"
    },
    "faxNumber": "5187854573",
    "geo": {
      "latitude": "42.766723",
      "longitude": "-73.814696"
    },
    "id": "51200",
    "name": "Keeler MINI",
    "telephone": "8772099386",
    "url": "www.keelermini.com"
  },
  {
    "address": {
      "addressCountry": "US",
      "addressLocality": "Palm Harbor",
      "addressRegion": "FL",
      "postalCode": "34684",
      "streetAddress": "31480 US Highway 19 N"
    },
    "faxNumber": "7277847029",
    "geo": {
      "latitude": "28.057795",
      "longitude": "-82.739689"
    },
    "id": "49134",
    "name": "Ferman MINI of Tampa Bay",
    "telephone": "8888662857",
    "url": "www.minioftampabay.com"
  },
  {
    "address": {
      "addressCountry": "US",
      "addressLocality": "Gaithersburg",
      "addressRegion": "MD",
      "postalCode": "20879",
      "streetAddress": "621 N Frederick Ave"
    },
    "faxNumber": "2402381491",
    "geo": {
      "latitude": "39.154828",
      "longitude": "-77.213442"
    },
    "id": "35299",
    "name": "MINI of Montgomery County",
    "telephone": "8889843354",
    "url": "www.miniofmontgomerycounty.com"
  },
  {
    "address": {
      "addressCountry": "US",
      "addressLocality": "Corte Madera",
      "addressRegion": "CA",
      "postalCode": "94925",
      "streetAddress": "5880 Paradise Drive"
    },
    "faxNumber": "4157370490",
    "geo": {
      "latitude": "37.926014",
      "longitude": "-122.51207"
    },
    "id": "35687",
    "name": "MINI of Marin",
    "telephone": "4157370500",
    "url": "www.miniofmarin.com"
  },
  {
    "address": {
      "addressCountry": "US",
      "addressLocality": "Shelburne",
      "addressRegion": "VT",
      "postalCode": "05482",
      "streetAddress": "74 Champlain Drive"
    },
    "faxNumber": "8029858485",
    "geo": {
      "latitude": "44.4089719",
      "longitude": "-73.217177"
    },
    "id": "16718",
    "name": "MINI of Burlington",
    "telephone": "8029858484",
    "url": "www.miniofburlington.com"
  },
  {
    "address": {
      "addressCountry": "US",
      "addressLocality": "Wesley Chapel",
      "addressRegion": "FL",
      "postalCode": "33544",
      "streetAddress": "26645 State Road 56"
    },
    "faxNumber": "8139942983",
    "geo": {
      "latitude": "28.185671",
      "longitude": "-82.35572"
    },
    "id": "36637",
    "name": "MINI of Wesley Chapel",
    "telephone": "8139073600",
    "url": "www.miniofwesleychapel.com"
  },
  {
    "address": {
      "addressCountry": "US",
      "addressLocality": "Dallas",
      "addressRegion": "TX",
      "postalCode": "75209",
      "streetAddress": "6250 Lemmon Ave"
    },
    "faxNumber": "9722430517",
    "geo": {
      "latitude": "32.834439",
      "longitude": "-96.829953"
    },
    "id": "26731",
    "name": "MINI of Dallas",
    "telephone": "8772092816",
    "url": "www.miniofdallas.com"
  },
  {
    "address": {
      "addressCountry": "US",
      "addressLocality": "Houston",
      "addressRegion": "TX",
      "postalCode": "77074",
      "streetAddress": "10000 Southwest Fwy"
    },
    "faxNumber": "7135963482",
    "geo": {
      "latitude": "29.670695",
      "longitude": "-95.548083"
    },
    "id": "26747",
    "name": "Momentum MINI",
    "telephone": "8005575374",
    "url": "www.momentummini.com"
  },
  {
    "address": {
      "addressCountry": "US",
      "addressLocality": "Dublin",
      "addressRegion": "OH",
      "postalCode": "43017",
      "streetAddress": "5825 Venture Drive"
    },
    "faxNumber": "6148895727",
    "geo": {
      "latitude": "40.1007228",
      "longitude": "-83.1491998"
    },
    "id": "25803",
    "name": "MAG MINI of Dublin",
    "telephone": "8774931060",
    "url": "www.midwesternmini.com"
  },
  {
    "address": {
      "addressCountry": "US",
      "addressLocality": "Bala Cynwyd",
      "addressRegion": "PA",
      "postalCode": "19004",
      "streetAddress": "130 Montgomery Ave"
    },
    "faxNumber": "6106679823",
    "geo": {
      "latitude": "40.005161",
      "longitude": "-75.23968"
    },
    "id": "36640",
    "name": "MINI of the Main Line",
    "telephone": "8772099298",
    "url": "www.minimainline.com"
  },
  {
    "address": {
      "addressCountry": "US",
      "addressLocality": "Boston",
      "addressRegion": "MA",
      "postalCode": "02134",
      "streetAddress": "1168 Commonwealth Ave"
    },
    "faxNumber": "6177314259",
    "geo": {
      "latitude": "42.350171",
      "longitude": "-71.128163"
    },
    "id": "34400",
    "name": "Herb Chambers MINI of Boston",
    "telephone": "8772058841",
    "url": "www.herbchambersmini.com"
  },
  {
    "address": {
      "addressCountry": "US",
      "addressLocality": "Naperville",
      "addressRegion": "IL",
      "postalCode": "60540",
      "streetAddress": "2491 Aurora Avenue"
    },
    "faxNumber": "6303579835",
    "geo": {
      "latitude": "41.763488",
      "longitude": "-88.194604"
    },
    "id": "26792",
    "name": "Bill Jacobs MINI",
    "telephone": "8665168050",
    "url": "www.billjacobsmini.com"
  },
  {
    "address": {
      "addressCountry": "US",
      "addressLocality": "Indianapolis",
      "addressRegion": "IN",
      "postalCode": "46240",
      "streetAddress": "9333 Haver Way"
    },
    "faxNumber": "3175730214",
    "geo": {
      "latitude": "39.923882",
      "longitude": "-86.113526"
    },
    "id": "27600",
    "name": "Dreyer & Reinbold MINI",
    "telephone": "8008752269",
    "url": "www.dreyerreinboldmini.com"
  },
  {
    "address": {
      "addressCountry": "US",
      "addressLocality": "Edmond",
      "addressRegion": "OK",
      "postalCode": "73013",
      "streetAddress": "14145 Broadway Ext"
    },
    "faxNumber": "4057537010",
    "geo": {
      "latitude": "35.61407",
      "longitude": "-97.49381"
    },
    "id": "35071",
    "name": "Jackie Cooper MINI",
    "telephone": "8663329140",
    "url": "www.jackiecoopermini.com"
  },
  {
    "address": {
      "addressCountry": "US",
      "addressLocality": "Portland",
      "addressRegion": "OR",
      "postalCode": "97225",
      "streetAddress": "9134 Southwest Canyon Road"
    },
    "faxNumber": "8887469315",
    "geo": {
      "latitude": "45.495695",
      "longitude": "-122.7714"
    },
    "id": "39669",
    "name": "MINI of Portland",
    "telephone": "8887469315",
    "url": "www.miniportland.com"
  },
  {
    "address": {
      "addressCountry": "US",
      "addressLocality": "Camarillo",
      "addressRegion": "CA",
      "postalCode": "93010",
      "streetAddress": "311 E. Daily Drive"
    },
    "faxNumber": "8059143304",
    "geo": {
      "latitude": "34.2197647",
      "longitude": "-119.064468"
    },
    "id": "17990",
    "name": "MINI of Camarillo",
    "telephone": "8052992667",
    "url": "www.miniofcamarillo.com"
  },
  {
    "address": {
      "addressCountry": "US",
      "addressLocality": "Tucson",
      "addressRegion": "AZ",
      "postalCode": "85711",
      "streetAddress": "4635 E. 22nd St."
    },
    "faxNumber": "5208785293",
    "geo": {
      "latitude": "32.207466",
      "longitude": "-110.893593"
    },
    "id": "38425",
    "name": "MINI of Tucson",
    "telephone": "5203256464",
    "url": "www.minioftucson.com"
  },
  {
    "address": {
      "addressCountry": "US",
      "addressLocality": "Rochester",
      "addressRegion": "NY",
      "postalCode": "14623",
      "streetAddress": "3875 W Henrietta Rd"
    },
    "faxNumber": "5853341211",
    "geo": {
      "latitude": "43.0755",
      "longitude": "-77.64385"
    },
    "id": "36840",
    "name": "MINI of Rochester",
    "telephone": "5853346464",
    "url": "www.miniofrochester.com"
  },
  {
    "address": {
      "addressCountry": "US",
      "addressLocality": "Anchorage",
      "addressRegion": "AK",
      "postalCode": "99501",
      "streetAddress": "800 E. 5th Avenue"
    },
    "faxNumber": "9077437199",
    "geo": {
      "latitude": "61.217442",
      "longitude": "-149.868685"
    },
    "id": "28786",
    "name": "MINI of Anchorage",
    "telephone": "9077437100",
    "url": "www.minianchorage.com"
  },
  {
    "address": {
      "addressCountry": "US",
      "addressLocality": "Ann Arbor",
      "addressRegion": "MI",
      "postalCode": "48103",
      "streetAddress": "3500 Jackson Rd"
    },
    "faxNumber": "7348838464",
    "geo": {
      "latitude": "42.285631",
      "longitude": "-83.800642"
    },
    "id": "35301",
    "name": "MINI of Ann Arbor",
    "telephone": "7349294601",
    "url": "www.miniofannarbor.com"
  },
  {
    "address": {
      "addressCountry": "US",
      "addressLocality": "Arlington",
      "addressRegion": "TX",
      "postalCode": "76011",
      "streetAddress": "2001 N Collins St"
    },
    "faxNumber": "8174365768",
    "geo": {
      "latitude": "32.765715",
      "longitude": "-97.09631"
    },
    "id": "40304",
    "name": "MINI of Arlington",
    "telephone": "8174365700",
    "url": "www.miniofarlington.com"
  },
  {
    "address": {
      "addressCountry": "US",
      "addressLocality": "Valencia",
      "addressRegion": "CA",
      "postalCode": "91355",
      "streetAddress": "24135 Creekside Road"
    },
    "faxNumber": "6612862699",
    "geo": {
      "latitude": "34.4200888",
      "longitude": "-118.557423"
    },
    "id": "39448",
    "name": "MINI of Valencia",
    "telephone": "6612862600",
    "url": "www.miniofvalencia.com"
  },
  {
    "address": {
      "addressCountry": "US",
      "addressLocality": "Little Rock",
      "addressRegion": "AR",
      "postalCode": "72211",
      "streetAddress": "12601 W. Markham St."
    },
    "faxNumber": "5012281060",
    "geo": {
      "latitude": "34.752911",
      "longitude": "-92.414665"
    },
    "id": "39313",
    "name": "MINI of Little Rock",
    "telephone": "5012246464",
    "url": "www.minioflittlerock.com"
  },
  {
    "address": {
      "addressCountry": "US",
      "addressLocality": "Pittsburgh",
      "addressRegion": "PA",
      "postalCode": "15213",
      "streetAddress": "4900 Baum Blvd."
    },
    "faxNumber": "4126823706",
    "geo": {
      "latitude": "40.454618",
      "longitude": "-79.94647"
    },
    "id": "34910",
    "name": "MINI of Pittsburgh",
    "telephone": "8772999045",
    "url": "www.miniofpittsburgh.com"
  },
  {
    "address": {
      "addressCountry": "US",
      "addressLocality": "Monrovia",
      "addressRegion": "CA",
      "postalCode": "91016",
      "streetAddress": "1451 South Mountain Avenue"
    },
    "faxNumber": "6263582325",
    "geo": {
      "latitude": "34.136367",
      "longitude": "-117.986933"
    },
    "id": "31642",
    "name": "MINI of Monrovia",
    "telephone": "8772780090",
    "url": "www.miniofmonrovia.com"
  },
  {
    "address": {
      "addressCountry": "US",
      "addressLocality": "Cleveland",
      "addressRegion": "OH",
      "postalCode": "44135",
      "streetAddress": "14070 Brookpark Road"
    },
    "faxNumber": "4403482025",
    "geo": {
      "latitude": "41.419254",
      "longitude": "-81.793958"
    },
    "id": "41195",
    "name": "Airport MINI of Cleveland",
    "telephone": "2166766464",
    "url": "www.airportmini.com"
  },
  {
    "address": {
      "addressCountry": "US",
      "addressLocality": "Virginia Beach",
      "addressRegion": "VA",
      "postalCode": "23462",
      "streetAddress": "5193 Virginia Beach Boulevard"
    },
    "faxNumber": "7576873433",
    "geo": {
      "latitude": "36.8466809",
      "longitude": "-76.1611007"
    },
    "id": "25244",
    "name": "Checkered Flag MINI",
    "telephone": "8772063944",
    "url": "www.checkeredflagmini.com"
  },
  {
    "address": {
      "addressCountry": "US",
      "addressLocality": "St. Louis",
      "addressRegion": "MO",
      "postalCode": "63143",
      "streetAddress": "40 Sunnen Dr."
    },
    "faxNumber": "3147279345",
    "geo": {
      "latitude": "38.6070319",
      "longitude": "-90.331609"
    },
    "id": "24024",
    "name": "MINI of St. Louis",
    "telephone": "3146446464",
    "url": "www.miniofstlouis.com"
  },
  {
    "address": {
      "addressCountry": "US",
      "addressLocality": "Sterling",
      "addressRegion": "VA",
      "postalCode": "20166",
      "streetAddress": "21826 Pacific Blvd"
    },
    "faxNumber": "5714347722",
    "geo": {
      "latitude": "39.0124333",
      "longitude": "-77.4371"
    },
    "id": "23276",
    "name": "MINI of Sterling",
    "telephone": "5714341944",
    "url": "www.miniofsterling.com"
  },
  {
    "address": {
      "addressCountry": "US",
      "addressLocality": "Darien",
      "addressRegion": "CT",
      "postalCode": "06820",
      "streetAddress": "154 Post Rd."
    },
    "faxNumber": "2033484750",
    "geo": {
      "latitude": "41.0891876",
      "longitude": "-73.4567413"
    },
    "id": "23200",
    "name": "MINI of Fairfield County",
    "telephone": "8772205130",
    "url": "www.minifairfieldcounty.com"
  },
  {
    "address": {
      "addressCountry": "US",
      "addressLocality": "Owings Mills",
      "addressRegion": "MD",
      "postalCode": "21117",
      "streetAddress": "9804 Reistertown Rd"
    },
    "faxNumber": "4436321198",
    "geo": {
      "latitude": "39.408374",
      "longitude": "-76.764449"
    },
    "id": "22817",
    "name": "MINI of Baltimore County",
    "telephone": "8664163545",
    "url": "www.minibaltimore.com"
  },
  {
    "address": {
      "addressCountry": "US",
      "addressLocality": "Kennesaw",
      "addressRegion": "GA",
      "postalCode": "30144",
      "streetAddress": "2275 Barrett Lakes Blvd NW"
    },
    "faxNumber": "6784794685",
    "geo": {
      "latitude": "34.009928",
      "longitude": "-84.577625"
    },
    "id": "30955",
    "name": "MINI of Kennesaw",
    "telephone": "7704286464",
    "url": "www.miniofkennesaw.com"
  },
  {
    "address": {
      "addressCountry": "US",
      "addressLocality": "Torrance",
      "addressRegion": "CA",
      "postalCode": "90504",
      "streetAddress": "18900 Hawthorne Boulevard"
    },
    "faxNumber": "3109212675",
    "geo": {
      "latitude": "33.858685",
      "longitude": "-118.351906"
    },
    "id": "41903",
    "name": "South Bay MINI",
    "telephone": "8773095393",
    "url": "www.southbaymini.com"
  },
  {
    "address": {
      "addressCountry": "US",
      "addressLocality": "Chamblee",
      "addressRegion": "GA",
      "postalCode": "30341",
      "streetAddress": "5925 Peachtree Industrial Blvd"
    },
    "faxNumber": "7702344859",
    "geo": {
      "latitude": "33.9089",
      "longitude": "-84.29"
    },
    "id": "21850",
    "name": "Global Imports MINI",
    "telephone": "6785697550",
    "url": "www.atlantamini.com"
  },
  {
    "address": {
      "addressCountry": "US",
      "addressLocality": "Ramsey",
      "addressRegion": "NJ",
      "postalCode": "07446",
      "streetAddress": "925 Rt 17 S"
    },
    "faxNumber": "2017605070",
    "geo": {
      "latitude": "41.06488",
      "longitude": "-74.130057"
    },
    "id": "25523",
    "name": "Prestige MINI",
    "telephone": "8774803670",
    "url": "www.prestigemini.com"
  },
  {
    "address": {
      "addressCountry": "US",
      "addressLocality": "Huntington Station",
      "addressRegion": "NY",
      "postalCode": "11746",
      "streetAddress": "959 Jericho Tpke"
    },
    "faxNumber": "6314215345",
    "geo": {
      "latitude": "40.835559",
      "longitude": "-73.374004"
    },
    "id": "25522",
    "name": "Habberstad MINI",
    "telephone": "8006910040",
    "url": "www.habberstadmini.com"
  },
  {
    "address": {
      "addressCountry": "US",
      "addressLocality": "Charlotte",
      "addressRegion": "NC",
      "postalCode": "28227",
      "streetAddress": "7036 E Independence Boulevard"
    },
    "faxNumber": "7045662511",
    "geo": {
      "latitude": "35.1644592",
      "longitude": "-80.742493"
    },
    "id": "66788",
    "name": "Hendrick MINI",
    "telephone": "8666320860",
    "url": "www.hendrickmini.com"
  },
  {
    "address": {
      "addressCountry": "US",
      "addressLocality": "Reno",
      "addressRegion": "NV",
      "postalCode": "89511",
      "streetAddress": "11505 South Virginia Street"
    },
    "faxNumber": "7756892164",
    "geo": {
      "latitude": "39.426664",
      "longitude": "-119.762369"
    },
    "id": "26419",
    "name": "MINI of Reno",
    "telephone": "7758516464",
    "url": "www.miniofreno.com"
  },
  {
    "address": {
      "addressCountry": "US",
      "addressLocality": "Brentwood",
      "addressRegion": "TN",
      "postalCode": "37027",
      "streetAddress": "1572 Mallory Lane"
    },
    "faxNumber": "6156473178",
    "geo": {
      "latitude": "35.976451",
      "longitude": "-86.806445"
    },
    "id": "21234",
    "name": "MINI of Nashville",
    "telephone": "6156206464",
    "url": "www.miniofnashville.com"
  },
  {
    "address": {
      "addressCountry": "US",
      "addressLocality": "Las Vegas",
      "addressRegion": "NV",
      "postalCode": "89146",
      "streetAddress": "5750 West Sahara Ave"
    },
    "faxNumber": "7029474436",
    "geo": {
      "latitude": "36.144433",
      "longitude": "-115.219946"
    },
    "id": "21294",
    "name": "MINI of Las Vegas",
    "telephone": "8772000193",
    "url": "www.desertminioflasvegas.com"
  },
  {
    "address": {
      "addressCountry": "US",
      "addressLocality": "Greenville",
      "addressRegion": "SC",
      "postalCode": "29607",
      "streetAddress": "2930 Laurens Road"
    },
    "faxNumber": "8642343373",
    "geo": {
      "latitude": "34.809359",
      "longitude": "-82.332114"
    },
    "id": "21470",
    "name": "Century MINI",
    "telephone": "8642346437",
    "url": "www.centurymini.com"
  },
  {
    "address": {
      "addressCountry": "US",
      "addressLocality": "The Woodlands",
      "addressRegion": "TX",
      "postalCode": "77384",
      "streetAddress": "17830 Interstate 45 S"
    },
    "faxNumber": "9362712909",
    "geo": {
      "latitude": "30.19841",
      "longitude": "-95.45524"
    },
    "id": "21471",
    "name": "MINI of The Woodlands",
    "telephone": "8772094635",
    "url": "www.miniofthewoodlands.com"
  },
  {
    "address": {
      "addressCountry": "US",
      "addressLocality": "North Hollywood",
      "addressRegion": "CA",
      "postalCode": "91602",
      "streetAddress": "4338 Lankershim Boulevard"
    },
    "faxNumber": "8185085016",
    "geo": {
      "latitude": "34.1490663",
      "longitude": "-118.36491"
    },
    "id": "20268",
    "name": "MINI of Universal City",
    "telephone": "8772260692",
    "url": "www.miniuniversalcity.com"
  },
  {
    "address": {
      "addressCountry": "US",
      "addressLocality": "Miami",
      "addressRegion": "FL",
      "postalCode": "33137",
      "streetAddress": "2060 NE 2nd Ave"
    },
    "faxNumber": "3055711260",
    "geo": {
      "latitude": "25.796605",
      "longitude": "-80.19091"
    },
    "id": "20626",
    "name": "Braman MINI of Miami",
    "telephone": "8668787788",
    "url": "www.bramanminiofmiami.com"
  },
  {
    "address": {
      "addressCountry": "US",
      "addressLocality": "Phoenix",
      "addressRegion": "AZ",
      "postalCode": "85054",
      "streetAddress": "7101 E Chauncey Ln"
    },
    "faxNumber": "4805386465",
    "geo": {
      "latitude": "33.651537",
      "longitude": "-111.928379"
    },
    "id": "20741",
    "name": "MINI North Scottsdale",
    "telephone": "8777054108",
    "url": "www.mininorthscottsdale.com"
  },
  {
    "address": {
      "addressCountry": "US",
      "addressLocality": "Irvine",
      "addressRegion": "CA",
      "postalCode": "92618",
      "streetAddress": "9829 Research Drive"
    },
    "faxNumber": "9493878360",
    "geo": {
      "latitude": "33.63245",
      "longitude": "-117.72755"
    },
    "id": "21188",
    "name": "Irvine MINI",
    "telephone": "9493966464",
    "url": "www.irvinemini.com"
  },
  {
    "address": {
      "addressCountry": "US",
      "addressLocality": "Richmond",
      "addressRegion": "VA",
      "postalCode": "23294",
      "streetAddress": "8710 W Broad St"
    },
    "faxNumber": "8047475845",
    "geo": {
      "latitude": "37.634",
      "longitude": "-77.5415"
    },
    "id": "21608",
    "name": "Crown MINI of Richmond",
    "telephone": "8776008146",
    "url": "www.crownmini.com"
  },
  {
    "address": {
      "addressCountry": "US",
      "addressLocality": "Santa Clara",
      "addressRegion": "CA",
      "postalCode": "95051",
      "streetAddress": "4201 Stevens Creek Blvd."
    },
    "faxNumber": "4082604999",
    "geo": {
      "latitude": "37.323173",
      "longitude": "-121.974213"
    },
    "id": "36269",
    "name": "MINI of Stevens Creek",
    "telephone": "4082604900",
    "url": "www.miniofstevenscreek.com"
  },
  {
    "address": {
      "addressCountry": "US",
      "addressLocality": "Knoxville",
      "addressRegion": "TN",
      "postalCode": "37922",
      "streetAddress": "10665 Parkside Dr."
    },
    "faxNumber": "8656913917",
    "geo": {
      "latitude": "35.901974",
      "longitude": "-84.138097"
    },
    "id": "16694",
    "name": "MINI of Knoxville",
    "telephone": "8887249503",
    "url": "www.miniofknoxville.com"
  },
  {
    "address": {
      "addressCountry": "US",
      "addressLocality": "Allentown",
      "addressRegion": "PA",
      "postalCode": "18104",
      "streetAddress": "4600 Crackersport Rd."
    },
    "faxNumber": "6103368142",
    "geo": {
      "latitude": "40.60024",
      "longitude": "-75.562136"
    },
    "id": "26200",
    "name": "MINI of Allentown",
    "telephone": "6108212500",
    "url": "www.miniofallentown.com"
  },
  {
    "address": {
      "addressCountry": "US",
      "addressLocality": "Austin",
      "addressRegion": "TX",
      "postalCode": "78729",
      "streetAddress": "7113 McNeil Drive"
    },
    "faxNumber": "5123433539",
    "geo": {
      "latitude": "30.43614",
      "longitude": "-97.763139"
    },
    "id": "26167",
    "name": "MINI of Austin",
    "telephone": "5124102734",
    "url": "www.miniofaustin.com"
  },
  {
    "address": {
      "addressCountry": "US",
      "addressLocality": "El Paso",
      "addressRegion": "TX",
      "postalCode": "79925",
      "streetAddress": "6318 Montana Ave."
    },
    "faxNumber": "9157798952",
    "geo": {
      "latitude": "31.787",
      "longitude": "-106.4073"
    },
    "id": "36270",
    "name": "MINI of El Paso",
    "telephone": "9157789381",
    "url": "www.miniofelpaso.com"
  },
  {
    "address": {
      "addressCountry": "US",
      "addressLocality": "Louisville",
      "addressRegion": "KY",
      "postalCode": "40207",
      "streetAddress": "4170 Shelbyville Road"
    },
    "faxNumber": "5028934747",
    "geo": {
      "latitude": "38.251308",
      "longitude": "-85.6404232"
    },
    "id": "34750",
    "name": "MINI of Louisville",
    "telephone": "5028937770",
    "url": "www.minioflouisville.com"
  },
  {
    "address": {
      "addressCountry": "US",
      "addressLocality": "Raleigh",
      "addressRegion": "NC",
      "postalCode": "27616",
      "streetAddress": "5600 Capital Blvd"
    },
    "faxNumber": "9198764790",
    "geo": {
      "latitude": "35.86175",
      "longitude": "-78.580734"
    },
    "id": "34749",
    "name": "Flow MINI of Raleigh",
    "telephone": "9198764580",
    "url": "www.flowminiraleigh.com"
  },
  {
    "address": {
      "addressCountry": "US",
      "addressLocality": "Loveland",
      "addressRegion": "CO",
      "postalCode": "80538",
      "streetAddress": "4055 Byrd Drive"
    },
    "faxNumber": "9702925714",
    "geo": {
      "latitude": "40.434585",
      "longitude": "-104.996681"
    },
    "id": "05076",
    "name": "MINI of Loveland",
    "telephone": "9702925020",
    "url": "www.miniofloveland.com"
  },
  {
    "address": {
      "addressCountry": "US",
      "addressLocality": "Tempe",
      "addressRegion": "AZ",
      "postalCode": "85284",
      "streetAddress": "7855 South Test Drive"
    },
    "faxNumber": "4804214705",
    "geo": {
      "latitude": "33.3456321",
      "longitude": "-111.965801"
    },
    "id": "34751",
    "name": "MINI of Tempe",
    "telephone": "4804214700",
    "url": "www.minioftempe.com"
  },
  {
    "address": {
      "addressCountry": "US",
      "addressLocality": "San Diego",
      "addressRegion": "CA",
      "postalCode": "92111",
      "streetAddress": "5202 Kearny Mesa Road"
    },
    "faxNumber": "8582683460",
    "geo": {
      "latitude": "32.830772",
      "longitude": "-117.143086"
    },
    "id": "24335",
    "name": "MINI of San Diego",
    "telephone": "8586166464",
    "url": "www.miniofsandiego.com"
  },
  {
    "address": {
      "addressCountry": "US",
      "addressLocality": "Madison",
      "addressRegion": "WI",
      "postalCode": "53713",
      "streetAddress": "310 W Beltline Highway"
    },
    "faxNumber": "6084419950",
    "geo": {
      "latitude": "43.0398",
      "longitude": "-89.382904"
    },
    "id": "63766",
    "name": "MINI of Madison",
    "telephone": "6087296464",
    "url": "www.miniofmadison.com"
  },
  {
    "address": {
      "addressCountry": "US",
      "addressLocality": "Pleasanton",
      "addressRegion": "CA",
      "postalCode": "94588",
      "streetAddress": "4340 Rosewood Dr"
    },
    "faxNumber": "9254631601",
    "geo": {
      "latitude": "37.699953",
      "longitude": "-121.876036"
    },
    "id": "10731",
    "name": "East Bay MINI",
    "telephone": "8665495589",
    "url": "www.eastbaymini.com"
  },
  {
    "address": {
      "addressCountry": "US",
      "addressLocality": "Winston Salem",
      "addressRegion": "NC",
      "postalCode": "27127",
      "streetAddress": "2575 Peters Creek Pkwy"
    },
    "faxNumber": "3367857959",
    "geo": {
      "latitude": "36.063084",
      "longitude": "-80.258319"
    },
    "id": "15268",
    "name": "Flow MINI",
    "telephone": "8772707089",
    "url": "www.flowminiwinston.com"
  },
  {
    "address": {
      "addressCountry": "US",
      "addressLocality": "Southfield",
      "addressRegion": "MI",
      "postalCode": "48034",
      "streetAddress": "29929 Telegraph Rd"
    },
    "faxNumber": "2482044681",
    "geo": {
      "latitude": "42.507696",
      "longitude": "-83.286337"
    },
    "id": "40093",
    "name": "Motor City MINI",
    "telephone": "2482044600",
    "url": "www.motorcitymini.com"
  },
  {
    "address": {
      "addressCountry": "US",
      "addressLocality": "Albuquerque",
      "addressRegion": "NM",
      "postalCode": "87109",
      "streetAddress": "6001 Pan American West Fwy NE"
    },
    "faxNumber": "5053420088",
    "geo": {
      "latitude": "35.1486701",
      "longitude": "-106.5904069"
    },
    "id": "16450",
    "name": "Sandia MINI",
    "telephone": "8885248220",
    "url": "www.sandiamini.com"
  },
  {
    "address": {
      "addressCountry": "US",
      "addressLocality": "White Plains",
      "addressRegion": "NY",
      "postalCode": "10607",
      "streetAddress": "543 Tarrytown Road"
    },
    "faxNumber": "9143475415",
    "geo": {
      "latitude": "41.044463",
      "longitude": "-73.803203"
    },
    "id": "33326",
    "name": "MINI of Westchester",
    "telephone": "9147616666",
    "url": "www.miniofwestchester.com"
  },
  {
    "address": {
      "addressCountry": "US",
      "addressLocality": "Morristown",
      "addressRegion": "NJ",
      "postalCode": "07960",
      "streetAddress": "198 Madison Ave"
    },
    "faxNumber": "9734510884",
    "geo": {
      "latitude": "40.787018",
      "longitude": "-74.45451"
    },
    "id": "30253",
    "name": "MINI of Morristown",
    "telephone": "8772466128",
    "url": "www.morristownmini.com"
  },
  {
    "address": {
      "addressCountry": "US",
      "addressLocality": "Escondido",
      "addressRegion": "CA",
      "postalCode": "92029",
      "streetAddress": "1555 Auto Park Way"
    },
    "faxNumber": "7607452180",
    "geo": {
      "latitude": "33.11681",
      "longitude": "-117.10807"
    },
    "id": "16483",
    "name": "MINI of Escondido",
    "telephone": "8772642470",
    "url": "www.miniofescondido.com"
  },
  {
    "address": {
      "addressCountry": "US",
      "addressLocality": "Hartford",
      "addressRegion": "CT",
      "postalCode": "06120",
      "streetAddress": "236 Reverend Moody Overpass"
    },
    "faxNumber": "8605220016",
    "geo": {
      "latitude": "41.781806",
      "longitude": "-72.666085"
    },
    "id": "20173",
    "name": "New Country MINI",
    "telephone": "8773835983",
    "url": "www.newcountrymini.com"
  },
  {
    "address": {
      "addressCountry": "US",
      "addressLocality": "West Allis",
      "addressRegion": "WI",
      "postalCode": "53227",
      "streetAddress": "2400 S 108th St"
    },
    "faxNumber": "4146046023",
    "geo": {
      "latitude": "43.0001",
      "longitude": "-88.0467"
    },
    "id": "20133",
    "name": "International MINI",
    "telephone": "8772696470",
    "url": "www.internationalmini.com"
  },
  {
    "address": {
      "addressCountry": "US",
      "addressLocality": "Pensacola",
      "addressRegion": "FL",
      "postalCode": "32505",
      "streetAddress": "186A W Airport Blvd"
    },
    "faxNumber": "8504976123",
    "geo": {
      "latitude": "30.473357",
      "longitude": "-87.251154"
    },
    "id": "10698",
    "name": "MINI of Pensacola",
    "telephone": "8504976464",
    "url": "www.miniofpensacola.com"
  },
  {
    "address": {
      "addressCountry": "US",
      "addressLocality": "Seattle",
      "addressRegion": "WA",
      "postalCode": "98125",
      "streetAddress": "11550 Lake City Way NE"
    },
    "faxNumber": "8775696464",
    "geo": {
      "latitude": "47.7137428",
      "longitude": "-122.2983187"
    },
    "id": "33864",
    "name": "Seattle MINI",
    "telephone": "2065884250",
    "url": "www.seattlemini.com"
  },
  {
    "address": {
      "addressCountry": "US",
      "addressLocality": "Irondale",
      "addressRegion": "AL",
      "postalCode": "35210",
      "streetAddress": "2001 Tom Williams Way"
    },
    "faxNumber": "2057454701",
    "geo": {
      "latitude": "33.52195",
      "longitude": "-86.66425"
    },
    "id": "21851",
    "name": "MINI of Birmingham",
    "telephone": "8005450142",
    "url": "www.birminghammini.com"
  },
  {
    "address": {
      "addressCountry": "US",
      "addressLocality": "Alexandria",
      "addressRegion": "VA",
      "postalCode": "22304",
      "streetAddress": "5990 Duke Street"
    },
    "faxNumber": "7034614632",
    "geo": {
      "latitude": "38.813663",
      "longitude": "-77.133814"
    },
    "id": "33784",
    "name": "MINI of Alexandria",
    "telephone": "8889844873",
    "url": "www.miniofalexandria.com"
  },
  {
    "address": {
      "addressCountry": "US",
      "addressLocality": "Warwick",
      "addressRegion": "RI",
      "postalCode": "02886",
      "streetAddress": "1515A Bald Hill Rd"
    },
    "faxNumber": "4018242355",
    "geo": {
      "latitude": "41.699479",
      "longitude": "-71.496321"
    },
    "id": "26703",
    "name": "MINI of Warwick",
    "telephone": "8773613416",
    "url": "www.warwickmini.com"
  },
  {
    "address": {
      "addressCountry": "US",
      "addressLocality": "Grand Rapids",
      "addressRegion": "MI",
      "postalCode": "49508",
      "streetAddress": "1010 28th St SE"
    },
    "faxNumber": "6164521101",
    "geo": {
      "latitude": "42.9124",
      "longitude": "-85.6404"
    },
    "id": "86862",
    "name": "MINI of Grand Rapids",
    "telephone": "8772077464",
    "url": "www.miniofgrandrapids.com"
  },
  {
    "address": {
      "addressCountry": "US",
      "addressLocality": "Merriam",
      "addressRegion": "KS",
      "postalCode": "66202",
      "streetAddress": "9000 Shawnee Mission Pkwy"
    },
    "faxNumber": "9137225191",
    "geo": {
      "latitude": "39.014989",
      "longitude": "-94.689587"
    },
    "id": "31015",
    "name": "Baron MINI",
    "telephone": "8886505901",
    "url": "www.baronmini.com"
  },
  {
    "address": {
      "addressCountry": "US",
      "addressLocality": "Omaha",
      "addressRegion": "NE",
      "postalCode": "68114",
      "streetAddress": "716 N 102nd St"
    },
    "faxNumber": "4022553403",
    "geo": {
      "latitude": "41.266039",
      "longitude": "-96.071763"
    },
    "id": "61100",
    "name": "MINI of Omaha",
    "telephone": "8772129351",
    "url": "www.miniofomaha.com"
  },
  {
    "address": {
      "addressCountry": "US",
      "addressLocality": "Ontario",
      "addressRegion": "CA",
      "postalCode": "91761",
      "streetAddress": "1251 Auto Center Drive"
    },
    "faxNumber": "9093908468",
    "geo": {
      "latitude": "34.050517",
      "longitude": "-117.544374"
    },
    "id": "34821",
    "name": "MINI of Ontario",
    "telephone": "8889645970",
    "url": "www.miniofontario.com"
  },
  {
    "address": {
      "addressCountry": "US",
      "addressLocality": "Fort Myers",
      "addressRegion": "FL",
      "postalCode": "33912",
      "streetAddress": "13880 S Tamiami Trail"
    },
    "faxNumber": "2392102841",
    "geo": {
      "latitude": "26.540676",
      "longitude": "-81.87215"
    },
    "id": "22081",
    "name": "MINI of Fort Myers",
    "telephone": "8007989237",
    "url": "www.miniofftmyers.com"
  },
  {
    "address": {
      "addressCountry": "US",
      "addressLocality": "Rockland",
      "addressRegion": "MA",
      "postalCode": "02370",
      "streetAddress": "1040 Hingham Street"
    },
    "faxNumber": "          ",
    "geo": {
      "latitude": "42.165221",
      "longitude": "-70.895914"
    },
    "id": "41272",
    "name": "South Shore MINI",
    "telephone": "8447606464",
    "url": "www.southshoremini.com"
  },
  {
    "address": {
      "addressCountry": "US",
      "addressLocality": "Freeport",
      "addressRegion": "NY",
      "postalCode": "11520",
      "streetAddress": "280 W Sunrise Hwy"
    },
    "faxNumber": "5163796093",
    "geo": {
      "latitude": "40.655955",
      "longitude": "-73.593878"
    },
    "id": "41518",
    "name": "MINI of Freeport",
    "telephone": "8772120285",
    "url": "www.minioffreeport.com"
  },
  {
    "address": {
      "addressCountry": "US",
      "addressLocality": "Littleton",
      "addressRegion": "CO",
      "postalCode": "80121",
      "streetAddress": "5700 S Broadway"
    },
    "faxNumber": "3037974041",
    "geo": {
      "latitude": "39.6128",
      "longitude": "-104.9873"
    },
    "id": "05042",
    "name": "Ralph Schomp MINI",
    "telephone": "8773319182",
    "url": "www.ralphschompmini.com"
  },
  {
    "address": {
      "addressCountry": "US",
      "addressLocality": "Peabody",
      "addressRegion": "MA",
      "postalCode": "01960",
      "streetAddress": "209 Andover St"
    },
    "faxNumber": "9785360089",
    "geo": {
      "latitude": "42.544765",
      "longitude": "-70.943382"
    },
    "id": "10699",
    "name": "MINI of Peabody",
    "telephone": "8772129727",
    "url": "www.minipeabody.com"
  },
  {
    "address": {
      "addressCountry": "US",
      "addressLocality": "Calabasas",
      "addressRegion": "CA",
      "postalCode": "91302",
      "streetAddress": "24400 Calabasas Road"
    },
    "faxNumber": "8184441674",
    "geo": {
      "latitude": "34.15028",
      "longitude": "-118.657928"
    },
    "id": "04637",
    "name": "Bob Smith MINI",
    "telephone": "8772165721",
    "url": "www.bobsmithmini.com"
  },
  {
    "address": {
      "addressCountry": "US",
      "addressLocality": "Los Angeles",
      "addressRegion": "CA",
      "postalCode": "90001",
      "streetAddress": "6201 S Alameda Street"
    },
    "faxNumber": "3235833080",
    "geo": {
      "latitude": "33.98366",
      "longitude": "-118.236679"
    },
    "id": "04942",
    "name": "Nick Alexander MINI",
    "telephone": "8008006425",
    "url": "www.alexandermini.com"
  },
  {
    "address": {
      "addressCountry": "US",
      "addressLocality": "Santa Ana",
      "addressRegion": "CA",
      "postalCode": "92705",
      "streetAddress": "1455 Auto Mall Drive"
    },
    "faxNumber": "7145609526",
    "geo": {
      "latitude": "33.729041",
      "longitude": "-117.83785"
    },
    "id": "36721",
    "name": "Crevier MINI",
    "telephone": "7145609525",
    "url": "www.creviermini.com"
  },
  {
    "address": {
      "addressCountry": "US",
      "addressLocality": "Sacramento",
      "addressRegion": "CA",
      "postalCode": "95821",
      "streetAddress": "3210 Auburn Boulevard"
    },
    "faxNumber": "9164835494",
    "geo": {
      "latitude": "38.634033",
      "longitude": "-121.38887"
    },
    "id": "04618",
    "name": "Niello MINI",
    "telephone": "8772703209",
    "url": "www.niellomini.com"
  },
  {
    "address": {
      "addressCountry": "US",
      "addressLocality": "San Francisco",
      "addressRegion": "CA",
      "postalCode": "94103",
      "streetAddress": "1675 Howard St"
    },
    "faxNumber": "4158639958",
    "geo": {
      "latitude": "37.771016",
      "longitude": "-122.417329"
    },
    "id": "04247",
    "name": "MINI of San Francisco",
    "telephone": "8772099322",
    "url": "www.minisf.com"
  },
  {
    "address": {
      "addressCountry": "US",
      "addressLocality": "Concord",
      "addressRegion": "CA",
      "postalCode": "94520",
      "streetAddress": "1967 Market St"
    },
    "faxNumber": "9256762206",
    "geo": {
      "latitude": "37.975403",
      "longitude": "-122.0438415"
    },
    "id": "04497",
    "name": "MINI of Concord",
    "telephone": "8663296464",
    "url": "www.miniofconcord.com"
  },
  {
    "address": {
      "addressCountry": "US",
      "addressLocality": "Signal Hill",
      "addressRegion": "CA",
      "postalCode": "90755",
      "streetAddress": "2998 Cherry Ave Ste A"
    },
    "faxNumber": "5624273854",
    "geo": {
      "latitude": "33.811416",
      "longitude": "-118.16748"
    },
    "id": "31643",
    "name": "Long Beach MINI",
    "telephone": "8772426574",
    "url": "www.longbeachmini.com"
  },
  {
    "address": {
      "addressCountry": "US",
      "addressLocality": "Cincinnati",
      "addressRegion": "OH",
      "postalCode": "45227",
      "streetAddress": "6131 Stewart Ave"
    },
    "faxNumber": "5132713587",
    "geo": {
      "latitude": "39.1791",
      "longitude": "-84.3962"
    },
    "id": "96717",
    "name": "Cincinnati MINI",
    "telephone": "8772139751",
    "url": "www.cincinnatimini.com"
  },
  {
    "address": {
      "addressCountry": "US",
      "addressLocality": "Miami",
      "addressRegion": "FL",
      "postalCode": "33157",
      "streetAddress": "16215 S Dixie Hwy"
    },
    "faxNumber": "3052323536",
    "geo": {
      "latitude": "25.6195",
      "longitude": "-80.3453"
    },
    "id": "96603",
    "name": "South Motors MINI",
    "telephone": "3052562200",
    "url": "www.southmini.com"
  },
  {
    "address": {
      "addressCountry": "US",
      "addressLocality": "Southampton",
      "addressRegion": "NY",
      "postalCode": "11968",
      "streetAddress": "759 County Rd 39A"
    },
    "faxNumber": "6312830551",
    "geo": {
      "latitude": "40.8988876",
      "longitude": "-72.3729095"
    },
    "id": "34521",
    "name": "MINI of Southampton",
    "telephone": "8772246713",
    "url": "www.southamptonmini.com"
  },
  {
    "address": {
      "addressCountry": "US",
      "addressLocality": "Kahului",
      "addressRegion": "HI",
      "postalCode": "96732",
      "streetAddress": "410 Koloa St"
    },
    "faxNumber": "8088772696",
    "geo": {
      "latitude": "20.88719",
      "longitude": "-156.45506"
    },
    "id": "76731",
    "name": "MINI of Hawaii",
    "telephone": "8088774269",
    "url": "www.miniofhawaii.com"
  },
  {
    "address": {
      "addressCountry": "US",
      "addressLocality": "Baton Rouge",
      "addressRegion": "LA",
      "postalCode": "70817",
      "streetAddress": "12336 Airline Hwy"
    },
    "faxNumber": "2257515351",
    "geo": {
      "latitude": "30.3870132",
      "longitude": "-91.0436904"
    },
    "id": "76504",
    "name": "Brian Harris MINI",
    "telephone": "8663812555",
    "url": "www.brianharrismini.com"
  },
  {
    "address": {
      "addressCountry": "US",
      "addressLocality": "Fort Lauderdale",
      "addressRegion": "FL",
      "postalCode": "33316",
      "streetAddress": "1812 S Andrews Ave"
    },
    "faxNumber": "9545273818",
    "geo": {
      "latitude": "26.099029",
      "longitude": "-80.141688"
    },
    "id": "75784",
    "name": "Lauderdale MINI",
    "telephone": "9543356464",
    "url": "www.lauderdalemini.com"
  },
  {
    "address": {
      "addressCountry": "US",
      "addressLocality": "Willoughby Hills",
      "addressRegion": "OH",
      "postalCode": "44094",
      "streetAddress": "2571 SOM Center Road"
    },
    "faxNumber": "4403479720",
    "geo": {
      "latitude": "41.597634",
      "longitude": "-81.440582"
    },
    "id": "96499",
    "name": "Classic MINI",
    "telephone": "8776872707",
    "url": "www.driveclassicmini.com"
  },
  {
    "address": {
      "addressCountry": "US",
      "addressLocality": "Orlando",
      "addressRegion": "FL",
      "postalCode": "32810",
      "streetAddress": "350 S Lake Destiny Rd"
    },
    "faxNumber": "4078358115",
    "geo": {
      "latitude": "28.6149475",
      "longitude": "-81.3873893"
    },
    "id": "96255",
    "name": "Orlando MINI",
    "telephone": "8772413290",
    "url": "www.iwantamini.com"
  },
  {
    "address": {
      "addressCountry": "US",
      "addressLocality": "Schaumburg",
      "addressRegion": "IL",
      "postalCode": "60173",
      "streetAddress": "690 E Golf Rd"
    },
    "faxNumber": "8473104333",
    "geo": {
      "latitude": "42.0501013",
      "longitude": "-88.0628604"
    },
    "id": "86716",
    "name": "Patrick MINI",
    "telephone": "8667947575",
    "url": "www.patrickmini.com"
  },
  {
    "address": {
      "addressCountry": "US",
      "addressLocality": "Princeton",
      "addressRegion": "NJ",
      "postalCode": "08540",
      "streetAddress": "3466 US Highway 1"
    },
    "faxNumber": "6094527496",
    "geo": {
      "latitude": "40.305297",
      "longitude": "-74.66923"
    },
    "id": "31866",
    "name": "Princeton MINI",
    "telephone": "8772396119",
    "url": "www.princetonmini.com"
  }
]