[
  {
    "address": {
      "addressCountry": "United States",
      "addressLocality": "Wakefield",
      "addressRegion": "MA",
      "postalCode": "01880",
      "streetAddress": "614 North Avenue"
    },
    "email": "internet@128volvo.com",
    "geo": {
      "latitude": 42.51509,
      "longitude": -71.08728
    },
    "id": "AA7RZ",
    "name": "128 Volvo",
    "telephone": "781-224-3700",
    "url": "http://www.128volvo.com"
  },
  {
    "address": {
      "addressCountry": "United States",
      "addressLocality": "Dalton",
      "addressRegion": "GA",
      "postalCode": "30721",
      "streetAddress": "1202 Cleveland Avenue"
    },
    "email": "aljohnsonvw@charterbn.net",
    "geo": {
      "latitude": 34.7903481,
      "longitude": -84.96191
    },
    "id": "AA7VI",
    "name": "Al Johnson Volvo, Inc.",
    "telephone": "(706) 278-9200",
    "url": "http://www.aljohnsonvolvo.com"
  },
  {
    "address": {
      "addressCountry": "United States",
      "addressLocality": "Syracuse",
      "addressRegion": "NY",
      "postalCode": "13204",
      "streetAddress": "1230 West Genesee Street"
    },
    "email": "volvopm@yahoo.com",
    "geo": {
      "latitude": 43.05331,
      "longitude": -76.17683
    },
    "id": "AA7R5",
    "name": "Alan Byer Auto Sales, Inc.",
    "telephone": "(315) 471-6107",
    "url": "http://www.syracusevolvo.com"
  },
  {
    "address": {
      "addressCountry": "United States",
      "addressLocality": "Baton Rouge",
      "addressRegion": "LA",
      "postalCode": "70816",
      "streetAddress": "10101 Coursey Blvd"
    },
    "email": "cliggette@duplessisautogroup.com",
    "geo": {
      "latitude": 30.4171524,
      "longitude": -91.06876
    },
    "id": "AD3V8",
    "name": "All Star Volvo of Baton Rouge",
    "telephone": "(225) 292-4700",
    "url": "http://www.batonrougevolvo.com"
  },
  {
    "address": {
      "addressCountry": "United States",
      "addressLocality": "Shelburne",
      "addressRegion": "VT",
      "postalCode": "05482",
      "streetAddress": "85 Executive Drive"
    },
    "email": "info@almartin.com",
    "geo": {
      "latitude": 44.4061165,
      "longitude": -73.21489
    },
    "id": "AA7P5",
    "name": "Almartin Volvo",
    "telephone": "(800) 639-5088",
    "url": "http://www.almartin.com"
  },
  {
    "address": {
      "addressCountry": "United States",
      "addressLocality": "Annapolis",
      "addressRegion": "MD",
      "postalCode": "21409",
      "streetAddress": "333 Busch's Frontage Rd."
    },
    "email": "av-sm@annapoliscars.net",
    "geo": {
      "latitude": 39.02719,
      "longitude": -76.45406
    },
    "id": "AA7WS",
    "name": "Annapolis Volvo",
    "telephone": "(410) 974-4800",
    "url": "http://www.ANNAPOLISVOLVO.COM"
  },
  {
    "address": {
      "addressCountry": "United States",
      "addressLocality": "Fort Worth",
      "addressRegion": "TX",
      "postalCode": "76107",
      "streetAddress": "3000 White Settlement Road"
    },
    "email": "rdempsey@abahn.com",
    "geo": {
      "latitude": 32.7592964,
      "longitude": -97.36243
    },
    "id": "AA7SQ",
    "name": "Autobahn Motorcars",
    "telephone": "(817) 336-0885",
    "url": "http://www.autobahnvolvoftworth.com"
  },
  {
    "address": {
      "addressCountry": "United States",
      "addressLocality": "Oak Park",
      "addressRegion": "IL",
      "postalCode": "60304",
      "streetAddress": "1140 Garfield Street"
    },
    "email": "volvooakpark@theautobarn.com",
    "geo": {
      "latitude": 41.8723869,
      "longitude": -87.80351
    },
    "id": "AEEAM",
    "name": "Autobarn Volvo of Oak Park",
    "telephone": "708-786-6560",
    "url": ""
  },
  {
    "address": {
      "addressCountry": "United States",
      "addressLocality": "Bellevue",
      "addressRegion": "WA",
      "postalCode": "98004",
      "streetAddress": "420 116th Avenue NE"
    },
    "email": "GM2912@autonation.com",
    "geo": {
      "latitude": 47.6179123,
      "longitude": -122.1804
    },
    "id": "AEC7H",
    "name": "AutoNation Volvo Bellevue",
    "telephone": "(425) 455-5522",
    "url": "http://www.autonationvolvobellevue.com"
  },
  {
    "address": {
      "addressCountry": "United States",
      "addressLocality": "Irvine",
      "addressRegion": "CA",
      "postalCode": "92618",
      "streetAddress": "44 Auto Center Drive"
    },
    "email": "BAYDUH@autonation.com",
    "geo": {
      "latitude": 33.6323738,
      "longitude": -117.7237
    },
    "id": "AA7UD",
    "name": "AutoNation Volvo Irvine",
    "telephone": "(949) 454-2999",
    "url": "http://www.autonationvolvoirvine.com"
  },
  {
    "address": {
      "addressCountry": "United States",
      "addressLocality": "San Jose",
      "addressRegion": "CA",
      "postalCode": "95129",
      "streetAddress": "4600 Stevens Creek Blvd"
    },
    "email": "MendozaJ1@autonation.com",
    "geo": {
      "latitude": 37.3226662,
      "longitude": -121.984329
    },
    "id": "ADV7E",
    "name": "AutoNation Volvo San Jose",
    "telephone": "(408) 983-2400",
    "url": "http://www.sanjosevolvo.com"
  },
  {
    "address": {
      "addressCountry": "United States",
      "addressLocality": "Torrance",
      "addressRegion": "CA",
      "postalCode": "90505",
      "streetAddress": "3010 Pacific Coast Highway"
    },
    "email": "JohnsonD12@autonation.com",
    "geo": {
      "latitude": 33.7965431,
      "longitude": -118.3393
    },
    "id": "AD2WH",
    "name": "AutoNation Volvo South Bay",
    "telephone": "(310) 325-3255",
    "url": "http://www.autonationvolvosouthbay.com"
  },
  {
    "address": {
      "addressCountry": "United States",
      "addressLocality": "Barrington",
      "addressRegion": "IL",
      "postalCode": "60010",
      "streetAddress": "300 N. Hough Street"
    },
    "email": "barringvolvo@aol.com",
    "geo": {
      "latitude": 42.15636,
      "longitude": -88.13626
    },
    "id": "AA7X6",
    "name": "Barrington Volvo, Inc.",
    "telephone": "(847) 381-9400",
    "url": "http://www.barringtonvolvo.com"
  },
  {
    "address": {
      "addressCountry": "United States",
      "addressLocality": "Brooklyn",
      "addressRegion": "NY",
      "postalCode": "11209",
      "streetAddress": "8910 Fourth Avenue"
    },
    "email": "sales@bayridgevolvo.com",
    "geo": {
      "latitude": 40.62059,
      "longitude": -74.02944
    },
    "id": "AA7QT",
    "name": "Bay Ridge Volvo",
    "telephone": "(718) 833-7070",
    "url": "http://www.bayridgevolvo.com"
  },
  {
    "address": {
      "addressCountry": "United States",
      "addressLocality": "Houston",
      "addressRegion": "TX",
      "postalCode": "77034",
      "streetAddress": "12353 Gulf Freeway"
    },
    "email": "info@baywayvolvo.com",
    "geo": {
      "latitude": 29.62011,
      "longitude": -95.21971
    },
    "id": "AD67O",
    "name": "Bayway Volvo",
    "telephone": "(281) 929-6500",
    "url": "http://www.baywayvolvotx.com"
  },
  {
    "address": {
      "addressCountry": "United States",
      "addressLocality": "Myrtle Beach",
      "addressRegion": "SC",
      "postalCode": "29577",
      "streetAddress": "851 Jason Blvd"
    },
    "email": "bflmv@hotmail.com",
    "geo": {
      "latitude": 33.71211,
      "longitude": -78.90632
    },
    "id": "AC93U",
    "name": "Beach Volvo",
    "telephone": "(843) 626-3666",
    "url": "http://www.beachvolvo.net"
  },
  {
    "address": {
      "addressCountry": "United States",
      "addressLocality": "Cheshire",
      "addressRegion": "MA",
      "postalCode": "01225",
      "streetAddress": "395 South State Road"
    },
    "email": "sales@bedardbros.com",
    "geo": {
      "latitude": 42.5508575,
      "longitude": -73.16493
    },
    "id": "AA7RQ",
    "name": "Bedard Bros. Auto Sales, Inc.",
    "telephone": "(413) 743-0014",
    "url": "http://www.bedardvolvo.com/index.htm"
  },
  {
    "address": {
      "addressCountry": "United States",
      "addressLocality": "Cincinnati",
      "addressRegion": "OH",
      "postalCode": "45227",
      "streetAddress": "4113 Plainville Road"
    },
    "email": "sales@theautomile.com",
    "geo": {
      "latitude": 39.0717926,
      "longitude": -84.31498
    },
    "id": "AA7YU",
    "name": "Beechmont Volvo, Inc.",
    "telephone": "(513) 271-3200",
    "url": "http://www.volvocincinnatiplainville.com"
  },
  {
    "address": {
      "addressCountry": "United States",
      "addressLocality": "Metairie",
      "addressRegion": "LA",
      "postalCode": "70002",
      "streetAddress": "3525 Veterans Boulevard"
    },
    "email": "bill@bergeronauto.com",
    "geo": {
      "latitude": 30.0039463,
      "longitude": -90.16007
    },
    "id": "AA7R0",
    "name": "Bergeron Volvo",
    "telephone": "(504) 293-5283",
    "url": "http://www.bergeronvolvo.com"
  },
  {
    "address": {
      "addressCountry": "United States",
      "addressLocality": "Appleton",
      "addressRegion": "WI",
      "postalCode": "54913",
      "streetAddress": "3030 Victory Lane"
    },
    "email": "premier@bergstromauto.com",
    "geo": {
      "latitude": 44.2896461,
      "longitude": -88.46914
    },
    "id": "ADW2N",
    "name": "Bergstrom Volvo",
    "telephone": "(920) 968-5600",
    "url": "http://www.bergstromvolvo.com"
  },
  {
    "address": {
      "addressCountry": "United States",
      "addressLocality": "Rochester",
      "addressRegion": "NY",
      "postalCode": "14610",
      "streetAddress": "1500 University Avenue"
    },
    "email": "info@bestvolvo.com",
    "geo": {
      "latitude": 43.14911,
      "longitude": -77.56221
    },
    "id": "AA7R4",
    "name": "Best Volvo of Rochester",
    "telephone": "(585) 473-8530",
    "url": "http://www.bestvolvo.com"
  },
  {
    "address": {
      "addressCountry": "United States",
      "addressLocality": "Grand Rapids",
      "addressRegion": "MI",
      "postalCode": "49546-6907",
      "streetAddress": "5901 28TH ST SE"
    },
    "email": "sales@bettenimports.com",
    "geo": {
      "latitude": 42.9132,
      "longitude": -85.52053
    },
    "id": "AA7YM",
    "name": "Betten Imports, Inc.",
    "telephone": "(616) 301-2100",
    "url": "http://www.bettenvolvo.com/index.htm"
  },
  {
    "address": {
      "addressCountry": "United States",
      "addressLocality": "Elmsford",
      "addressRegion": "NY",
      "postalCode": "10523",
      "streetAddress": "262 East Main Street"
    },
    "email": "bigdeevolvo@yahoo.com",
    "geo": {
      "latitude": 41.0498543,
      "longitude": -73.81064
    },
    "id": "AD5Q8",
    "name": "Big Dee Auto Sales, Inc.",
    "telephone": "(914) 347-3377",
    "url": "http://www.bigdeevolvo.com"
  },
  {
    "address": {
      "addressCountry": "United States",
      "addressLocality": "McMurray",
      "addressRegion": "PA",
      "postalCode": "15317",
      "streetAddress": "2897 Washington Road"
    },
    "email": "info@billgray.com",
    "geo": {
      "latitude": 40.3001862,
      "longitude": -80.09879
    },
    "id": "AD5RF",
    "name": "Bill Gray Volvo",
    "telephone": "(724) 949-1555",
    "url": "http://www.billgrayvolvo.com"
  },
  {
    "address": {
      "addressCountry": "United States",
      "addressLocality": "Cockeysville",
      "addressRegion": "MD",
      "postalCode": "21030",
      "streetAddress": "10401 York Rd"
    },
    "email": "paulanecharico@billkidds.com",
    "geo": {
      "latitude": 39.472805,
      "longitude": -76.64005
    },
    "id": "ADFF7",
    "name": "Bill Kidds Volvo",
    "telephone": "(410) 666-8900",
    "url": "http://www.billkiddsvolvo.com"
  },
  {
    "address": {
      "addressCountry": "United States",
      "addressLocality": "Reno",
      "addressRegion": "NV",
      "postalCode": "89511",
      "streetAddress": "11555 SO. VIRGINIA ST"
    },
    "email": "sales@billpearcemotors.com",
    "geo": {
      "latitude": 39.499382,
      "longitude": -119.7888
    },
    "id": "AA7UV",
    "name": "Bill Pearce Volvo",
    "telephone": "(775) 826-2100",
    "url": "http://www.billpearcevolvo.com"
  },
  {
    "address": {
      "addressCountry": "United States",
      "addressLocality": "Seattle",
      "addressRegion": "WA",
      "postalCode": "98105",
      "streetAddress": "2700 N.E. 55th Street"
    },
    "email": "email@bobbyersvolvo.com",
    "geo": {
      "latitude": 47.6686554,
      "longitude": -122.2984
    },
    "id": "AA7VD",
    "name": "Bob Byers Ravenna Volvo",
    "telephone": "(206) 525-5424",
    "url": "http://www.ravennavolvo.com"
  },
  {
    "address": {
      "addressCountry": "United States",
      "addressLocality": "Colorado Springs",
      "addressRegion": "CO",
      "postalCode": "80906",
      "streetAddress": "1101 Motor City Drive"
    },
    "email": "acohen@bobpenkhus.com",
    "geo": {
      "latitude": 38.819397,
      "longitude": -104.8363
    },
    "id": "AA7TE",
    "name": "Bob Penkhus Volvo",
    "telephone": "(719) 473-4595",
    "url": "http://www.bobpenkhusvolvo.com"
  },
  {
    "address": {
      "addressCountry": "United States",
      "addressLocality": "Wexford",
      "addressRegion": "PA",
      "postalCode": "15090",
      "streetAddress": "15035 Perry Highway"
    },
    "email": "jguerry@bobbyrahal.com",
    "geo": {
      "latitude": 40.6500435,
      "longitude": -80.07897
    },
    "id": "ACNJ7",
    "name": "Bobby Rahal Volvo",
    "telephone": "(724) 940-3400",
    "url": "http://www.bobbyrahalvolvo.com"
  },
  {
    "address": {
      "addressCountry": "United States",
      "addressLocality": "Golden Valley",
      "addressRegion": "MN",
      "postalCode": "55426",
      "streetAddress": "905 Hampshire Avenue"
    },
    "email": "gv_sales@borton.com",
    "geo": {
      "latitude": 44.972702,
      "longitude": -93.36524
    },
    "id": "ACN0S",
    "name": "Borton Volvo (Golden Valley)",
    "telephone": "(612) 827-3666",
    "url": "http://www.bortonvolvo.com"
  },
  {
    "address": {
      "addressCountry": "United States",
      "addressLocality": "Brighton",
      "addressRegion": "MA",
      "postalCode": "02134",
      "streetAddress": "75 North Beacon Street"
    },
    "email": "webleads@bostonvolvo.com",
    "geo": {
      "latitude": 42.354393,
      "longitude": -71.14161
    },
    "id": "AA7RR",
    "name": "Boston Volvo Village",
    "telephone": "(888) 797-9587",
    "url": "http://www.bostonvillagevolvo.com"
  },
  {
    "address": {
      "addressCountry": "United States",
      "addressLocality": "Sycamore",
      "addressRegion": "IL",
      "postalCode": "60178",
      "streetAddress": "1825 DeKalb Ave."
    },
    "email": "amybemis@brianbemis.com",
    "geo": {
      "latitude": 41.9706764,
      "longitude": -88.7188
    },
    "id": "AD5RJ",
    "name": "Brian Bemis Imports",
    "telephone": "(815) 895-8105",
    "url": "http://www.brianbemisvolvo.com"
  },
  {
    "address": {
      "addressCountry": "United States",
      "addressLocality": "Somerville",
      "addressRegion": "NJ",
      "postalCode": "08876",
      "streetAddress": "1028 U.S. Route 22"
    },
    "email": "maxtonj@volvocountry.com",
    "geo": {
      "latitude": 40.57974,
      "longitude": -74.60015
    },
    "id": "AA7Q9",
    "name": "Bridgewater Volvo",
    "telephone": "(908) 526-7700",
    "url": "http://www.bridgewatervolvo.com"
  },
  {
    "address": {
      "addressCountry": "United States",
      "addressLocality": "Nazareth",
      "addressRegion": "PA",
      "postalCode": "18064",
      "streetAddress": "4046 Jandy Blvd."
    },
    "email": "bswick@browndaub.com",
    "geo": {
      "latitude": 40.7305,
      "longitude": -75.3086
    },
    "id": "AA7WL",
    "name": "Brown-Daub Volvo of Lehigh Valley",
    "telephone": "(484) 298-0000",
    "url": "http://www.browndaubvolvo.com"
  },
  {
    "address": {
      "addressCountry": "United States",
      "addressLocality": "Huntingdon Valley",
      "addressRegion": "PA",
      "postalCode": "19006",
      "streetAddress": "2711 Philmont Ave"
    },
    "email": "sales@burdumymotors.com",
    "geo": {
      "latitude": 40.1217422,
      "longitude": -75.05185
    },
    "id": "AA7WH",
    "name": "Burdumy Motors, Inc.",
    "telephone": "(215) 947-6363",
    "url": "http://www.burdumymotors.com"
  },
  {
    "address": {
      "addressCountry": "United States",
      "addressLocality": "Columbus",
      "addressRegion": "OH",
      "postalCode": "43213",
      "streetAddress": "301 N. Hamilton Road"
    },
    "email": "DJOHNSON@BYERSAUTO.COM",
    "geo": {
      "latitude": 40.0251656,
      "longitude": -82.86631
    },
    "id": "AA7YR",
    "name": "Byers Volvo",
    "telephone": "(614) 864-0780",
    "url": "http://www.byersvolvooh.com"
  },
  {
    "address": {
      "addressCountry": "United States",
      "addressLocality": "Tallahassee",
      "addressRegion": "FL",
      "postalCode": "32304",
      "streetAddress": "3963 W. Tennessee Street"
    },
    "email": "aharris@crowncars.com",
    "geo": {
      "latitude": 30.4584389,
      "longitude": -84.36155
    },
    "id": "ADZD7",
    "name": "Capital Volvo",
    "telephone": "(850) 574-3777",
    "url": "http://www.capitalvolvofl.com"
  },
  {
    "address": {
      "addressCountry": "United States",
      "addressLocality": "Colonie",
      "addressRegion": "NY",
      "postalCode": "12205",
      "streetAddress": "347 New Karner Rd. - Route 155"
    },
    "email": "info@capvolvo.com",
    "geo": {
      "latitude": 42.7297821,
      "longitude": -73.85393
    },
    "id": "ADZ0T",
    "name": "Capital Volvo of Albany",
    "telephone": "(518) 452-1100",
    "url": "http://www.capvolvo.com"
  },
  {
    "address": {
      "addressCountry": "United States",
      "addressLocality": "Carlsbad",
      "addressRegion": "CA",
      "postalCode": "92009",
      "streetAddress": "6830 Avenida Encinas"
    },
    "email": "info@carlsbadvolvo.com",
    "geo": {
      "latitude": 33.1069374,
      "longitude": -117.3143
    },
    "id": "AA7T8",
    "name": "Carlsbad Volvo",
    "telephone": "(760) 931-7100",
    "url": "http://www.carlsbadvolvo.com"
  },
  {
    "address": {
      "addressCountry": "United States",
      "addressLocality": "Bluffton",
      "addressRegion": "SC",
      "postalCode": "29910",
      "streetAddress": "12 Gateway Village Road"
    },
    "email": "carvolvo@hargray.com",
    "geo": {
      "latitude": 32.2549934,
      "longitude": -80.84634
    },
    "id": "AA7VS",
    "name": "Carolina Volvo",
    "telephone": "(843) 815-6400",
    "url": "http://www.carolinavolvo.com"
  },
  {
    "address": {
      "addressCountry": "United States",
      "addressLocality": "Pensacola",
      "addressRegion": "FL",
      "postalCode": "32505",
      "streetAddress": "3050 Navy Boulevard"
    },
    "email": "sales@centennialimports.com",
    "geo": {
      "latitude": 30.4123726,
      "longitude": -87.2518
    },
    "id": "AA7V1",
    "name": "Centennial Imports, Inc.",
    "telephone": "(850) 432-9903",
    "url": "http://volvo.centennialimports.com"
  },
  {
    "address": {
      "addressCountry": "United States",
      "addressLocality": "Huntsville",
      "addressRegion": "AL",
      "postalCode": "35816",
      "streetAddress": "3800 University Drive N.W."
    },
    "email": "ctuttle@centuryauto.com",
    "geo": {
      "latitude": 34.73537,
      "longitude": -86.62369
    },
    "id": "AA7SA",
    "name": "Century Volvo",
    "telephone": "(256) 536-3800",
    "url": "http://www.century-volvo.com"
  },
  {
    "address": {
      "addressCountry": "United States",
      "addressLocality": "Chattanooga",
      "addressRegion": "TN",
      "postalCode": "37421",
      "streetAddress": "6037 International Dr."
    },
    "email": "hleads@longofchatt.com",
    "geo": {
      "latitude": 35.06009,
      "longitude": -85.19171
    },
    "id": "AD3K2",
    "name": "Chattanooga Volvo",
    "telephone": "(423) 855-5664",
    "url": "http://www.chattanoogavolvotn.com"
  },
  {
    "address": {
      "addressCountry": "United States",
      "addressLocality": "Cherry Hill",
      "addressRegion": "NJ",
      "postalCode": "08002",
      "streetAddress": "1810 Marlton Pike West"
    },
    "email": "chvolvo@cherryhillvolvo.com",
    "geo": {
      "latitude": 39.9179573,
      "longitude": -75.03141
    },
    "id": "AA7Q2",
    "name": "Cherry Hill Volvo",
    "telephone": "(856) 665-4050",
    "url": "http://www.cherryhillvolvo.com"
  },
  {
    "address": {
      "addressCountry": "United States",
      "addressLocality": "Knoxville",
      "addressRegion": "TN",
      "postalCode": "37922",
      "streetAddress": "9715 Parkside Drive"
    },
    "email": "rclayton@claytonvolvo.com",
    "geo": {
      "latitude": 35.9119072,
      "longitude": -84.10881
    },
    "id": "AA7SB",
    "name": "Clayton Motors",
    "telephone": "(865) 560-0050",
    "url": "http://www.claytonvolvo.com/"
  },
  {
    "address": {
      "addressCountry": "United States",
      "addressLocality": "Milford",
      "addressRegion": "CT",
      "postalCode": "06460",
      "streetAddress": "915 Boston Post Road"
    },
    "email": "jhamilton@ctsownvolvo.com",
    "geo": {
      "latitude": 41.2317657,
      "longitude": -73.05059
    },
    "id": "AA7QS",
    "name": "Connecticuts Own Volvo",
    "telephone": "(203) 877-0311",
    "url": "http://www.ctsownvolvo.com"
  },
  {
    "address": {
      "addressCountry": "United States",
      "addressLocality": "Anchorage",
      "addressRegion": "AK",
      "postalCode": "99503",
      "streetAddress": "4800 Old Seward Highway"
    },
    "email": "e-car@gci.net",
    "geo": {
      "latitude": 61.1772079,
      "longitude": -149.8683
    },
    "id": "AA7VG",
    "name": "Continental Motor Company, Inc.",
    "telephone": "(907) 561-6686",
    "url": "http://www.anchoragevolvo.com"
  },
  {
    "address": {
      "addressCountry": "United States",
      "addressLocality": "Albuquerque",
      "addressRegion": "NM",
      "postalCode": "87113",
      "streetAddress": "9000 Pan American Freeway N.E."
    },
    "email": "bdc@corleyauto.com",
    "geo": {
      "latitude": 35.1880531,
      "longitude": -106.580521
    },
    "id": "ADLS7",
    "name": "Corleys Albuquerque Volvo",
    "telephone": "(505) 260-2200",
    "url": "http://www.edcorleyvolvo.com"
  },
  {
    "address": {
      "addressCountry": "United States",
      "addressLocality": "Chico",
      "addressRegion": "CA",
      "postalCode": "95973",
      "streetAddress": "2520 Cohasset Road"
    },
    "email": "loisphelps@chicocourtesy.com",
    "geo": {
      "latitude": 39.7613945,
      "longitude": -121.8432
    },
    "id": "AD3RO",
    "name": "Courtesy Motors Auto Center",
    "telephone": "(530) 893-1300",
    "url": "http://www.courtesyvolvo.com"
  },
  {
    "address": {
      "addressCountry": "United States",
      "addressLocality": "Lansing",
      "addressRegion": "MI",
      "postalCode": "48917",
      "streetAddress": "8300 W. Saginaw Hwy"
    },
    "email": "sales@crippencars.com",
    "geo": {
      "latitude": 42.7411842,
      "longitude": -84.67815
    },
    "id": "AA7YJ",
    "name": "Crippen Volvo",
    "telephone": "(517) 627-8411",
    "url": "http://www.crippenvolvo.com/"
  },
  {
    "address": {
      "addressCountry": "United States",
      "addressLocality": "Greensboro",
      "addressRegion": "NC",
      "postalCode": "27407",
      "streetAddress": "3604 West Wendover"
    },
    "email": "leads@crownvolvo.com",
    "geo": {
      "latitude": 36.0597534,
      "longitude": -79.88299
    },
    "id": "ABRQ5",
    "name": "Crown Volvo",
    "telephone": "(336) 852-0600",
    "url": "http://www.crownvolvo.com"
  },
  {
    "address": {
      "addressCountry": "United States",
      "addressLocality": "Culver City",
      "addressRegion": "CA",
      "postalCode": "90230",
      "streetAddress": "11201 Washington Blvd"
    },
    "email": "sales@culvercityvolvo.com",
    "geo": {
      "latitude": 34.00731,
      "longitude": -118.4131
    },
    "id": "ADXSW",
    "name": "Culver City Volvo",
    "telephone": "(310) 391-0445",
    "url": "http://www.culvercityvolvo.com"
  },
  {
    "address": {
      "addressCountry": "United States",
      "addressLocality": "Rockville",
      "addressRegion": "MD",
      "postalCode": "20855",
      "streetAddress": "15401 Frederick Rd"
    },
    "email": "aarman@darcars.com",
    "geo": {
      "latitude": 39.1076622,
      "longitude": -77.1588
    },
    "id": "AA7XI",
    "name": "Darcars Volvo",
    "telephone": "(301) 309-3900",
    "url": "http://www.darcarsvolvomd.com"
  },
  {
    "address": {
      "addressCountry": "United States",
      "addressLocality": "Bangor",
      "addressRegion": "ME",
      "postalCode": "04401",
      "streetAddress": "114 Sylvan Road"
    },
    "email": "sales@darlings.com",
    "geo": {
      "latitude": 44.82797,
      "longitude": -68.7456
    },
    "id": "AA7QA",
    "name": "Darlings Volvo",
    "telephone": "(207) 941-1460",
    "url": "http://www.darlingsvolvo.com/index.htm"
  },
  {
    "address": {
      "addressCountry": "United States",
      "addressLocality": "Franklin",
      "addressRegion": "TN",
      "postalCode": "37068",
      "streetAddress": "1450 Murfreesboro Road"
    },
    "email": "kmackey@hendauto.com",
    "geo": {
      "latitude": 35.91301,
      "longitude": -86.82036
    },
    "id": "AA7SL",
    "name": "Darrell Waltrip Volvo",
    "telephone": "(615) 791-1101",
    "url": "http://www.darrellwaltripvolvo.com"
  },
  {
    "address": {
      "addressCountry": "United States",
      "addressLocality": "Miami",
      "addressRegion": "FL",
      "postalCode": "33133",
      "streetAddress": "3650 Bird Road"
    },
    "email": "acarles@deelsales.net",
    "geo": {
      "latitude": 25.7349529,
      "longitude": -80.25316
    },
    "id": "AA7V3",
    "name": "Deel Volvo",
    "telephone": "(305) 444-2222",
    "url": "http://www.deelvolvo.net"
  },
  {
    "address": {
      "addressCountry": "United States",
      "addressLocality": "Houston",
      "addressRegion": "TX",
      "postalCode": "77090",
      "streetAddress": "14101 North Freeway"
    },
    "email": "sales@demontrond.com",
    "geo": {
      "latitude": 29.9708958,
      "longitude": -95.421
    },
    "id": "AA7SW",
    "name": "DeMontrond Volvo",
    "telephone": "(281) 872-3883",
    "url": "http://www.demontrondvolvotx.com"
  },
  {
    "address": {
      "addressCountry": "United States",
      "addressLocality": "Columbia",
      "addressRegion": "SC",
      "postalCode": "29223",
      "streetAddress": "5825 Two Notch Road"
    },
    "email": "MOSBORNE@DICKDYERONLINE.COM",
    "geo": {
      "latitude": 34.05347,
      "longitude": -80.97818
    },
    "id": "AA7VH",
    "name": "Dick Dyer Volvo",
    "telephone": "(803) 786-8888",
    "url": "http://www.dickdyervolvo.com"
  },
  {
    "address": {
      "addressCountry": "United States",
      "addressLocality": "Falls Church",
      "addressRegion": "VA",
      "postalCode": "22046",
      "streetAddress": "1231 West Broad St."
    },
    "email": "donbeyervolvokia@eleadtrack.net",
    "geo": {
      "latitude": 38.89273,
      "longitude": -77.18782
    },
    "id": "AA7XE",
    "name": "Don Beyer Volvo",
    "telephone": "(703) 237-5000",
    "url": "http://www.fallschurchdonbeyervolvo.com"
  },
  {
    "address": {
      "addressCountry": "United States",
      "addressLocality": "Dulles",
      "addressRegion": "VA",
      "postalCode": "20166",
      "streetAddress": "21830 Pacific Blvd"
    },
    "email": "mdwyer@donbeyervolvo.com",
    "geo": {
      "latitude": 39.011467,
      "longitude": -77.4384
    },
    "id": "AC3K6",
    "name": "Don Beyer Volvo - Dulles",
    "telephone": "(703) 421-5700",
    "url": "http://www.dullesdonbeyervolvo.com"
  },
  {
    "address": {
      "addressCountry": "United States",
      "addressLocality": "Winchester",
      "addressRegion": "VA",
      "postalCode": "22602",
      "streetAddress": "4015 Valley Pike"
    },
    "email": "mvollmers@beyerauto.com",
    "geo": {
      "latitude": 39.11618,
      "longitude": -78.19981
    },
    "id": "AD2JV",
    "name": "Don Beyer Volvo - Winchester",
    "telephone": "(540) 868-0053",
    "url": "http://www.winchesterdonbeyervolvo.com"
  },
  {
    "address": {
      "addressCountry": "United States",
      "addressLocality": "Alexandria",
      "addressRegion": "VA",
      "postalCode": "22306",
      "streetAddress": "7416 Richmond Hwy, Rt 1 S"
    },
    "email": "jordy_coho@donbeyervolvo.com",
    "geo": {
      "latitude": 38.7568321,
      "longitude": -77.08399
    },
    "id": "AB0T3",
    "name": "Don Beyer Volvo-Alexandria",
    "telephone": "(703) 768-5800",
    "url": "http://www.alexandriadonbeyervolvo.com"
  },
  {
    "address": {
      "addressCountry": "United States",
      "addressLocality": "Commerce Twp.",
      "addressRegion": "MI",
      "postalCode": "48390",
      "streetAddress": "3055 E. W Maple Rd"
    },
    "email": "DWYER@DWYERANDSONS.COM",
    "geo": {
      "latitude": 42.5431175,
      "longitude": -83.44447
    },
    "id": "AA7YI",
    "name": "Dwyer & Sons Volvo",
    "telephone": "(248) 624-0400",
    "url": "http://www.dwyerandsonsvolvo.com"
  },
  {
    "address": {
      "addressCountry": "United States",
      "addressLocality": "Chamblee",
      "addressRegion": "GA",
      "postalCode": "30341",
      "streetAddress": "5260 Peachtree Industrial Blvd"
    },
    "email": "sales@dyervolvo.com",
    "geo": {
      "latitude": 33.893528,
      "longitude": -84.30724
    },
    "id": "AA7VL",
    "name": "Dyer & Dyer Volvo",
    "telephone": "(770) 452-0077",
    "url": "http://www.dyervolvo.com"
  },
  {
    "address": {
      "addressCountry": "United States",
      "addressLocality": "Riverhead",
      "addressRegion": "NY",
      "postalCode": "11901",
      "streetAddress": "1320 Old Country Road"
    },
    "email": "sales@eagleautomall.dealerspace.com",
    "geo": {
      "latitude": 40.93032,
      "longitude": -72.68512
    },
    "id": "AA7QY",
    "name": "Eagle Auto-Mall Corporation",
    "telephone": "(631) 727-0700",
    "url": "http://www.riverheadvolvo.net"
  },
  {
    "address": {
      "addressCountry": "United States",
      "addressLocality": "Chevy Chase",
      "addressRegion": "MD",
      "postalCode": "20815",
      "streetAddress": "7106 Woodmont Avenue"
    },
    "email": "information@euromotorcarsvolvo.com",
    "geo": {
      "latitude": 38.9798431,
      "longitude": -77.09267
    },
    "id": "AEAEE",
    "name": "Euro Motorcars Volvo of Bethesda",
    "telephone": "(240) 200-3800",
    "url": "http://www.euromotorcarsvolvoofbethesda.com"
  },
  {
    "address": {
      "addressCountry": "United States",
      "addressLocality": "Evansville",
      "addressRegion": "IN",
      "postalCode": "86360",
      "streetAddress": "4000 Division Street"
    },
    "email": "info@evansvillechrysler.com",
    "geo": {
      "latitude": 37.977478,
      "longitude": -87.50243
    },
    "id": "ADXF2",
    "name": "Evansville Volvo",
    "telephone": "(812) 473-0215",
    "url": "http://www.evansvillekia.com/"
  },
  {
    "address": {
      "addressCountry": "United States",
      "addressLocality": "Fairfax",
      "addressRegion": "VA",
      "postalCode": "22030",
      "streetAddress": "11050 Main St"
    },
    "email": "sales@fairfaxvolvo.com",
    "geo": {
      "latitude": 38.8543053,
      "longitude": -77.32713
    },
    "id": "AA7XD",
    "name": "Fairfax Volvo",
    "telephone": "(703) 591-1820",
    "url": "http://www.fairfaxvolvova.com"
  },
  {
    "address": {
      "addressCountry": "United States",
      "addressLocality": "West Springfield",
      "addressRegion": "MA",
      "postalCode": "01089",
      "streetAddress": "989 Memorial Ave."
    },
    "email": "vfusaro@fathers-sons.com",
    "geo": {
      "latitude": 42.0943947,
      "longitude": -72.61397
    },
    "id": "AA7RT",
    "name": "Fathers & Sons Volvo",
    "telephone": "(413) 214-6777",
    "url": "http://www.fathers-sonsvolvo.com"
  },
  {
    "address": {
      "addressCountry": "United States",
      "addressLocality": "Tarpon Springs",
      "addressRegion": "FL",
      "postalCode": "34689",
      "streetAddress": "43520 U.S. Highway 19, North"
    },
    "email": "evolvo@fermanauto.net",
    "geo": {
      "latitude": 28.1675072,
      "longitude": -82.7407
    },
    "id": "AA7V0",
    "name": "Ferman Volvo",
    "telephone": "(727) 942-4800",
    "url": "http://www.tarponspringsvolvo.com"
  },
  {
    "address": {
      "addressCountry": "United States",
      "addressLocality": "Northfield",
      "addressRegion": "IL",
      "postalCode": "60093",
      "streetAddress": "770 Frontage Road"
    },
    "email": "phubert@fieldsauto.com",
    "geo": {
      "latitude": 42.11244,
      "longitude": -87.77575
    },
    "id": "AA7X0",
    "name": "Fields Volvo",
    "telephone": "(847) 831-2100",
    "url": "http://www.volvonorthfield.com"
  },
  {
    "address": {
      "addressCountry": "United States",
      "addressLocality": "Madison",
      "addressRegion": "WI",
      "postalCode": "53719",
      "streetAddress": "6624 Seybold Road"
    },
    "email": "gokla@fieldsauto.com",
    "geo": {
      "latitude": 43.05185,
      "longitude": -89.49623
    },
    "id": "AD1BF",
    "name": "Fields Volvo Madison",
    "telephone": "(608) 443-3600",
    "url": "http://www.volvomadison.com"
  },
  {
    "address": {
      "addressCountry": "United States",
      "addressLocality": "Waukesha",
      "addressRegion": "WI",
      "postalCode": "53186",
      "streetAddress": "1901 East Moreland"
    },
    "email": "gokla@fieldsauto.com",
    "geo": {
      "latitude": 43.0266647,
      "longitude": -88.19405
    },
    "id": "ADY2L",
    "name": "Fields Volvo Waukesha",
    "telephone": "(262) 970-5900",
    "url": "http://www.volvowaukesha.com"
  },
  {
    "address": {
      "addressCountry": "United States",
      "addressLocality": "Bristol",
      "addressRegion": "TN",
      "postalCode": "37620",
      "streetAddress": "1855 Volunteer Parkway"
    },
    "email": "rchandler@friendshipauto.com",
    "geo": {
      "latitude": 36.55133,
      "longitude": -82.22347
    },
    "id": "AD2RA",
    "name": "Friendship Volvo of Bristol",
    "telephone": "(423) 652-6200",
    "url": "http://www.friendshipvolvobristol.com"
  },
  {
    "address": {
      "addressCountry": "United States",
      "addressLocality": "Worcester",
      "addressRegion": "MA",
      "postalCode": "01606",
      "streetAddress": "70 Gold Star Boulevard"
    },
    "email": "autobase@gallocars.com",
    "geo": {
      "latitude": 42.28828,
      "longitude": -71.80544
    },
    "id": "AA7RW",
    "name": "Gallo Volvo",
    "telephone": "(508) 755-5456",
    "url": "http://www.gallovolvo.com"
  },
  {
    "address": {
      "addressCountry": "United States",
      "addressLocality": "Van Nuys",
      "addressRegion": "CA",
      "postalCode": "91406",
      "streetAddress": "15500 Roscoe Blvd"
    },
    "email": "premier@galpin.dsmessage.com",
    "geo": {
      "latitude": 34.22125,
      "longitude": -118.4702
    },
    "id": "ADWCS",
    "name": "Galpin Volvo",
    "telephone": "(818) 894-3800",
    "url": "http://www.vannuysvolvo.com"
  },
  {
    "address": {
      "addressCountry": "United States",
      "addressLocality": "Manasquan",
      "addressRegion": "NJ",
      "postalCode": "08736",
      "streetAddress": "2415 Highway 35"
    },
    "email": "gardenstatevolvo@yahoo.com",
    "geo": {
      "latitude": 40.1271935,
      "longitude": -74.06784
    },
    "id": "AA7Q0",
    "name": "Garden State Volvo",
    "telephone": "(732) 528-7500",
    "url": "http://www.gardenstatevolvo.com"
  },
  {
    "address": {
      "addressCountry": "United States",
      "addressLocality": "Temple",
      "addressRegion": "TX",
      "postalCode": "76502",
      "streetAddress": "5700 S.W.H.K. Dodgen Loop"
    },
    "email": "importleads@garlynshelton.com",
    "geo": {
      "latitude": 31.1075916,
      "longitude": -97.39137
    },
    "id": "AA7S6",
    "name": "Garlyn Shelton Imports",
    "telephone": "(800) 431-1942",
    "url": "http://www.templevolvo.com"
  },
  {
    "address": {
      "addressCountry": "United States",
      "addressLocality": "East Hartford",
      "addressRegion": "CT",
      "postalCode": "06108",
      "streetAddress": "300 Connecticut Blvd."
    },
    "email": "gmcdonald@gengras.com",
    "geo": {
      "latitude": 41.7695847,
      "longitude": -72.65203
    },
    "id": "AA7QK",
    "name": "Gengras Volvo",
    "telephone": "(860) 289-3461",
    "url": "http://www.gengrasvolvohartford.com"
  },
  {
    "address": {
      "addressCountry": "United States",
      "addressLocality": "Meriden",
      "addressRegion": "CT",
      "postalCode": "06450",
      "streetAddress": "30 Pomeroy Avenue"
    },
    "email": "mdeselin@gengras.com",
    "geo": {
      "latitude": 41.52535,
      "longitude": -72.76722
    },
    "id": "ACUGH",
    "name": "Gengras Volvo - Meriden",
    "telephone": "(203) 237-8658",
    "url": "http://www.gengrasvolvomeriden.com"
  },
  {
    "address": {
      "addressCountry": "United States",
      "addressLocality": "Martinez",
      "addressRegion": "GA",
      "postalCode": "30907",
      "streetAddress": "4022 Washington Road"
    },
    "email": "jstrickland@geraldjonesimports.com",
    "geo": {
      "latitude": 33.51093,
      "longitude": -82.105
    },
    "id": "AA7VJ",
    "name": "Gerald Jones Volvo",
    "telephone": "(706) 228-7600",
    "url": "http://www.geraldjonesvolvo.com"
  },
  {
    "address": {
      "addressCountry": "United States",
      "addressLocality": "Lafayette",
      "addressRegion": "LA",
      "postalCode": "70503",
      "streetAddress": "6141 Johnston Street"
    },
    "email": "pmiller@gilescars.com",
    "geo": {
      "latitude": 30.16431,
      "longitude": -92.08376
    },
    "id": "AA7SG",
    "name": "Giles Volvo",
    "telephone": "(337) 988-2277",
    "url": "http://www.giles-volvo.com"
  },
  {
    "address": {
      "addressCountry": "United States",
      "addressLocality": "Glen Cove",
      "addressRegion": "NY",
      "postalCode": "11542",
      "streetAddress": "79 Cedar Swamp Road"
    },
    "email": "email@volvoglencove.com",
    "geo": {
      "latitude": 40.8545,
      "longitude": -73.61927
    },
    "id": "AECLG",
    "name": "Glen Cove Volvo",
    "telephone": "(516) 671-1700 ",
    "url": "http://www.glencovevolvo.com/index.htm"
  },
  {
    "address": {
      "addressCountry": "United States",
      "addressLocality": "Topsham",
      "addressRegion": "ME",
      "postalCode": "04086",
      "streetAddress": "91 Main St."
    },
    "email": "rgoodwin@goodwinmotorgroup.com",
    "geo": {
      "latitude": 43.9344635,
      "longitude": -69.96547
    },
    "id": "AA7P8",
    "name": "Goodwins Volvo",
    "telephone": "(207) 729-3369",
    "url": "http://www.goodwinsvolvo.com/"
  },
  {
    "address": {
      "addressCountry": "United States",
      "addressLocality": "Omaha",
      "addressRegion": "NE",
      "postalCode": "68118",
      "streetAddress": "17665 Burt Street"
    },
    "email": "dfriesen@gorgesvolvo.com",
    "geo": {
      "latitude": 41.2634239,
      "longitude": -96.17888
    },
    "id": "AA7TK",
    "name": "Gorges Volvo",
    "telephone": "(402) 359-1500",
    "url": "http://www.gorgesvolvo.com"
  },
  {
    "address": {
      "addressCountry": "United States",
      "addressLocality": "Delray Beach",
      "addressRegion": "FL",
      "postalCode": "33483",
      "streetAddress": "2201 N. Federal Highway"
    },
    "email": " jfg3@guntermotors.com",
    "geo": {
      "latitude": 26.4855614,
      "longitude": -80.06504
    },
    "id": "AEEAL",
    "name": "Gunther Volvo Delray",
    "telephone": "(561) 243-4600",
    "url": ""
  },
  {
    "address": {
      "addressCountry": "United States",
      "addressLocality": "Silver Spring",
      "addressRegion": "MD",
      "postalCode": "20904",
      "streetAddress": "3121 Automobile Blvd."
    },
    "email": "esarecky@mileone.com",
    "geo": {
      "latitude": 39.08007,
      "longitude": -76.94747
    },
    "id": "AA7XG",
    "name": "Herb Gordon Volvo",
    "telephone": "(301) 890-6200",
    "url": "http://www.herbgordonvolvoofsilverspring.com"
  },
  {
    "address": {
      "addressCountry": "United States",
      "addressLocality": "Beaverton",
      "addressRegion": "OR",
      "postalCode": "97005",
      "streetAddress": "4275 S.W. 139 Way"
    },
    "email": "volvowebleads@herzogmeier.com",
    "geo": {
      "latitude": 45.4890938,
      "longitude": -122.8199
    },
    "id": "AA7U3",
    "name": "Herzog-Meier Volvo",
    "telephone": "(503) 644-9121",
    "url": "http://www.beavertonvolvo.com"
  },
  {
    "address": {
      "addressCountry": "United States",
      "addressLocality": "Shreveport",
      "addressRegion": "LA",
      "postalCode": "71105",
      "streetAddress": "1221 East Bert Kouns Ind. Loop"
    },
    "email": "mstreet@holmeseuropeanmotors.com",
    "geo": {
      "latitude": 32.418602,
      "longitude": -93.72244
    },
    "id": "AA7S9",
    "name": "Holmes European Motors, LLC.",
    "telephone": "(318) 212-1212",
    "url": "http://www.shreveportvolvo.com"
  },
  {
    "address": {
      "addressCountry": "United States",
      "addressLocality": "Chicago",
      "addressRegion": "IL",
      "postalCode": "60622",
      "streetAddress": "1924 N. Paulina Street"
    },
    "email": "Sales@orloff.com",
    "geo": {
      "latitude": 41.91713,
      "longitude": -87.67047
    },
    "id": "AA7X7",
    "name": "Howard Orloff Volvo",
    "telephone": "(773) 227-3200",
    "url": "http://www.howardorloffvolvo.com/index.htm"
  },
  {
    "address": {
      "addressCountry": "United States",
      "addressLocality": "Wappingers Falls",
      "addressRegion": "NY",
      "postalCode": "12590",
      "streetAddress": "1152 Route 9"
    },
    "email": "hvvolvosales@thepremiercollection.com",
    "geo": {
      "latitude": 41.5664864,
      "longitude": -73.90677
    },
    "id": "AA7RN",
    "name": "Hudson Valley Volvo",
    "telephone": "(888) 346-6348",
    "url": "http://www.hudsonvalleyvolvo.com"
  },
  {
    "address": {
      "addressCountry": "United States",
      "addressLocality": "Asheville",
      "addressRegion": "NC",
      "postalCode": "28801",
      "streetAddress": "252 Patton Ave."
    },
    "email": "sales@hunterasheville.com",
    "geo": {
      "latitude": 35.34457,
      "longitude": -82.47374
    },
    "id": "AD5RI",
    "name": "Hunter Volvo",
    "telephone": "(828) 210-7700",
    "url": "http://www.huntervolvo.net"
  },
  {
    "address": {
      "addressCountry": "United States",
      "addressLocality": "Springfield",
      "addressRegion": "IL",
      "postalCode": "62701",
      "streetAddress": "228 E. Jefferson"
    },
    "email": "isringhausen@leads.gs.reyrey.com",
    "geo": {
      "latitude": 39.8029175,
      "longitude": -89.65281
    },
    "id": "AECDA",
    "name": "Isringhausen Volvo of Springfield",
    "telephone": "(217) 528-2277",
    "url": "http://www.isringhausenvolvo.com/index.htm"
  },
  {
    "address": {
      "addressCountry": "United States",
      "addressLocality": "Montgomery",
      "addressRegion": "AL",
      "postalCode": "36117",
      "streetAddress": "227 Eastern Bypass"
    },
    "email": "TThames@jackingram.com",
    "geo": {
      "latitude": 32.3776436,
      "longitude": -86.21008
    },
    "id": "AA7SF",
    "name": "Jack Ingram",
    "telephone": "(334) 277-5700",
    "url": "http://www.jackingramvolvo.com"
  },
  {
    "address": {
      "addressCountry": "United States",
      "addressLocality": "Macon",
      "addressRegion": "GA",
      "postalCode": "31210",
      "streetAddress": "4781 Riverside Dr"
    },
    "email": "keng@jacksonautomotive.com",
    "geo": {
      "latitude": 32.92356,
      "longitude": -83.71086
    },
    "id": "AA7VO",
    "name": "Jackson Automotive",
    "telephone": "(478) 477-4858",
    "url": "http://www.volvoofmacon.com"
  },
  {
    "address": {
      "addressCountry": "United States",
      "addressLocality": "Haverhill",
      "addressRegion": "MA",
      "postalCode": "01832",
      "streetAddress": "600 River Street"
    },
    "email": "jaffarianvolvotoyota@leads.gs.reyrey.com",
    "geo": {
      "latitude": 42.765316,
      "longitude": -71.10427
    },
    "id": "AA7RX",
    "name": "Jaffarian Volvo",
    "telephone": "(978) 372-8551",
    "url": "http://www.jaffarian-volvo.com"
  },
  {
    "address": {
      "addressCountry": "United States",
      "addressLocality": "Lubbock",
      "addressRegion": "TX",
      "postalCode": "79424",
      "streetAddress": "6027 Spur 327"
    },
    "email": "mearsvolvo@aol.com",
    "geo": {
      "latitude": 33.5384979,
      "longitude": -101.9431
    },
    "id": "AA7S2",
    "name": "James Mears Volvo",
    "telephone": "(806) 747-2931",
    "url": "http://www.mearsvolvocars.com"
  },
  {
    "address": {
      "addressCountry": "United States",
      "addressLocality": "Portland",
      "addressRegion": "OR",
      "postalCode": "97210",
      "streetAddress": "2108 West Burnside"
    },
    "email": "jfisher@jimfishervolvo.com",
    "geo": {
      "latitude": 45.5230827,
      "longitude": -122.6944
    },
    "id": "AA7U2",
    "name": "Jim Fisher Volvo, Inc.",
    "telephone": "(503) 295-5576",
    "url": "http://www.jimfishervolvo.com"
  },
  {
    "address": {
      "addressCountry": "United States",
      "addressLocality": "New Bern",
      "addressRegion": "NC",
      "postalCode": "28562",
      "streetAddress": "3405 Dr. M.L. King, Jr. Blvd"
    },
    "email": "sales@joealcokeauto.com",
    "geo": {
      "latitude": 35.0982666,
      "longitude": -77.09883
    },
    "id": "AD2JK",
    "name": "Joe Alcoke Volvo",
    "telephone": "(252) 638-6161",
    "url": "http://www.joealcokevolvo.com"
  },
  {
    "address": {
      "addressCountry": "United States",
      "addressLocality": "Cedar Rapids",
      "addressRegion": "IA",
      "postalCode": "52402",
      "streetAddress": "1510 Collins Road, NE"
    },
    "email": "lmi@junge.com",
    "geo": {
      "latitude": 42.0288239,
      "longitude": -91.6586
    },
    "id": "ADYSD",
    "name": "Junge Volvo",
    "telephone": "(319) 393-6500",
    "url": "http://www.jungevolvo.com"
  },
  {
    "address": {
      "addressCountry": "United States",
      "addressLocality": "Rockville Centre",
      "addressRegion": "NY",
      "postalCode": "11570",
      "streetAddress": "392 Sunrise Highway"
    },
    "email": "SALES@karpautomotive.com",
    "geo": {
      "latitude": 40.65694,
      "longitude": -73.6392059
    },
    "id": "AA7QV",
    "name": "Karp Volvo",
    "telephone": "(516) 764-4242",
    "url": "http://www.karpvolvo.com"
  },
  {
    "address": {
      "addressCountry": "United States",
      "addressLocality": "Canton",
      "addressRegion": "OH",
      "postalCode": "44703",
      "streetAddress": "1449 Cleveland Ave N.W."
    },
    "email": "kempthornesales@kempthorn.com",
    "geo": {
      "latitude": 40.813755,
      "longitude": -81.37875
    },
    "id": "AA7YV",
    "name": "Kempthorn Motors, Inc.",
    "telephone": "(330) 452-6511",
    "url": "http://www.kempthornvolvo.com"
  },
  {
    "address": {
      "addressCountry": "United States",
      "addressLocality": "Salt Lake City",
      "addressRegion": "UT",
      "postalCode": "84111",
      "streetAddress": "525 South State Street"
    },
    "email": "wills@kengarff.com",
    "geo": {
      "latitude": 40.7579269,
      "longitude": -111.8879
    },
    "id": "AA7T1",
    "name": "Ken Garff Volvo",
    "telephone": "(801) 257-3500",
    "url": "http://www.kengarffvolvosaltlake.com"
  },
  {
    "address": {
      "addressCountry": "United States",
      "addressLocality": "Berwyn",
      "addressRegion": "PA",
      "postalCode": "19312",
      "streetAddress": "497 E. Lancaster Ave"
    },
    "email": "salesber@keystonemotors.com",
    "geo": {
      "latitude": 40.0468178,
      "longitude": -75.435
    },
    "id": "AA7WB",
    "name": "Keystone Motors (Berwyn)",
    "telephone": "(610) 647-1800",
    "url": "http://keystonemotors.com/"
  },
  {
    "address": {
      "addressCountry": "United States",
      "addressLocality": "Doylestown",
      "addressRegion": "PA",
      "postalCode": "18901",
      "streetAddress": "235 S. Main Street"
    },
    "email": "salesdoy@keystonemotors.com",
    "geo": {
      "latitude": 40.30589,
      "longitude": -75.1289
    },
    "id": "AA7ZW",
    "name": "Keystone Motors (Doylestown)",
    "telephone": "(215) 348-9438",
    "url": "http://berwynvolvo.com/"
  },
  {
    "address": {
      "addressCountry": "United States",
      "addressLocality": "Bellingham",
      "addressRegion": "WA",
      "postalCode": "98229",
      "streetAddress": "1601 Iowa Street"
    },
    "email": "sales@kingnissanvolvo.com",
    "geo": {
      "latitude": 48.7565079,
      "longitude": -122.4536
    },
    "id": "AA7VC",
    "name": "King Volvo",
    "telephone": "(360) 733-7300",
    "url": "http://www.kingvolvo.com"
  },
  {
    "address": {
      "addressCountry": "United States",
      "addressLocality": "St. Paul",
      "addressRegion": "MN",
      "postalCode": "55109",
      "streetAddress": "3040 N. Highway 61"
    },
    "email": "miketheisen@klineautoworld.com",
    "geo": {
      "latitude": 45.0332,
      "longitude": -93.04455
    },
    "id": "AA7XY",
    "name": "Kline Volvo",
    "telephone": "(651) 481-9600",
    "url": "http://www.klinevolvomn.com"
  },
  {
    "address": {
      "addressCountry": "United States",
      "addressLocality": "Hasbrouck Heights",
      "addressRegion": "NJ",
      "postalCode": "07604",
      "streetAddress": "136 Route 17 North"
    },
    "email": "kundertb@kundert.com",
    "geo": {
      "latitude": 40.8932648,
      "longitude": -74.07122
    },
    "id": "AA7Q7",
    "name": "Kundert Volvo",
    "telephone": "(201) 288-8984",
    "url": "http://www.kundertmotors.com"
  },
  {
    "address": {
      "addressCountry": "United States",
      "addressLocality": "Englewood",
      "addressRegion": "NJ",
      "postalCode": "07631",
      "streetAddress": "186 Engle Street "
    },
    "email": "valentinettib@kundert.com",
    "geo": {
      "latitude": 40.8990822,
      "longitude": -73.97006
    },
    "id": "AA7Q5",
    "name": "Kundert Volvo of Englewood",
    "telephone": "(201) 567-2300",
    "url": "http://www.kundertmotors.com"
  },
  {
    "address": {
      "addressCountry": "United States",
      "addressLocality": "Walnut Creek",
      "addressRegion": "CA",
      "postalCode": "94597",
      "streetAddress": "2791 N. Main Street"
    },
    "email": "cars@lawrencevolvo.com",
    "geo": {
      "latitude": 37.9247322,
      "longitude": -122.0633
    },
    "id": "AA7US",
    "name": "Lawrence Volvo",
    "telephone": "(925) 939-3333",
    "url": "http://www.lawrencevolvo.com"
  },
  {
    "address": {
      "addressCountry": "United States",
      "addressLocality": "Mechanicsburg",
      "addressRegion": "PA",
      "postalCode": "17050",
      "streetAddress": "6281 Carlisle Pike"
    },
    "email": "brett@lehmanvolvo.com",
    "geo": {
      "latitude": 40.24577,
      "longitude": -76.99909
    },
    "id": "AA7W2",
    "name": "Lehman Motors",
    "telephone": "(717) 691-8400",
    "url": "http://www.lehmanvolvo.com"
  },
  {
    "address": {
      "addressCountry": "United States",
      "addressLocality": "York",
      "addressRegion": "PA",
      "postalCode": "17402",
      "streetAddress": "950 North Hills Road"
    },
    "email": "sales@lehmanvolvoyork.com",
    "geo": {
      "latitude": 39.9824867,
      "longitude": -76.69238
    },
    "id": "AA7W5",
    "name": "Lehman Volvo",
    "telephone": "(717) 755-7676",
    "url": "http://www.lehmanvolvoyork.com"
  },
  {
    "address": {
      "addressCountry": "United States",
      "addressLocality": "Willoughby",
      "addressRegion": "OH",
      "postalCode": "44094",
      "streetAddress": "38750 Mentor Ave"
    },
    "email": "volvoline@hotmail.com",
    "geo": {
      "latitude": 41.64449,
      "longitude": -81.39313
    },
    "id": "AA7YT",
    "name": "Leikin Motor Companies, Inc.",
    "telephone": "(440) 946-6900",
    "url": "http://www.willoughbyvolvo.com"
  },
  {
    "address": {
      "addressCountry": "United States",
      "addressLocality": "Fayetteville",
      "addressRegion": "NC",
      "postalCode": "28314",
      "streetAddress": "2012 Skibo Road"
    },
    "email": "admin@leithfay.com",
    "geo": {
      "latitude": 35.0586243,
      "longitude": -78.97103
    },
    "id": "AA7XU",
    "name": "Leith Volvo",
    "telephone": "(910) 864-1449",
    "url": "http://www.leithvolvo.com/"
  },
  {
    "address": {
      "addressCountry": "United States",
      "addressLocality": "Nashua",
      "addressRegion": "NH",
      "postalCode": "03060",
      "streetAddress": "180 Daniel Webster Highway"
    },
    "email": "info@loveringvolvo.com",
    "geo": {
      "latitude": 42.76053,
      "longitude": -71.46492
    },
    "id": "AA7P7",
    "name": "Lovering Volvo",
    "telephone": "(603) 888-7070",
    "url": "http://www.loveringnashua.com"
  },
  {
    "address": {
      "addressCountry": "United States",
      "addressLocality": "Concord",
      "addressRegion": "NH",
      "postalCode": "03301",
      "streetAddress": "95 Manchester Street"
    },
    "email": "info@loveringvolvo.com",
    "geo": {
      "latitude": 43.1910248,
      "longitude": -71.51215
    },
    "id": "AA7ZK",
    "name": "Lovering Volvo at Concord",
    "telephone": "(603) 225-6681",
    "url": "http://www.loveringconcord.com"
  },
  {
    "address": {
      "addressCountry": "United States",
      "addressLocality": "Meredith",
      "addressRegion": "NH",
      "postalCode": "03253",
      "streetAddress": "251 Daniel Webster Highway"
    },
    "email": "info@loveringvolvo.com",
    "geo": {
      "latitude": 43.648468,
      "longitude": -71.49945
    },
    "id": "ADY01",
    "name": "Lovering Volvo of Meredith",
    "telephone": "(603) 279-8000",
    "url": "http://www.loveringmeredith.com"
  },
  {
    "address": {
      "addressCountry": "United States",
      "addressLocality": "Boise",
      "addressRegion": "ID",
      "postalCode": "83709",
      "streetAddress": "7805 Gratz Drive"
    },
    "email": "mfabello@lylepearson.com",
    "geo": {
      "latitude": 43.6014366,
      "longitude": -116.2786
    },
    "id": "AA7U4",
    "name": "Lyle Pearson Co., Inc.",
    "telephone": "(208) 377-3900",
    "url": "http://www.lylepearsonboisevolvo.com"
  },
  {
    "address": {
      "addressCountry": "United States",
      "addressLocality": "Columbus",
      "addressRegion": "OH",
      "postalCode": "43017",
      "streetAddress": "6335 Perimeter Loop Road"
    },
    "email": "bharbold@magcars.com",
    "geo": {
      "latitude": 40.1019974,
      "longitude": -83.15098
    },
    "id": "AD2WZ",
    "name": "MAG Volvo of Dublin",
    "telephone": "(614) 885-6206",
    "url": "http://www.magvolvo.com"
  },
  {
    "address": {
      "addressCountry": "United States",
      "addressLocality": "Ithaca",
      "addressRegion": "NY",
      "postalCode": "14850",
      "streetAddress": "370 Elmira Road"
    },
    "email": "pmaguire@maguirecars.com",
    "geo": {
      "latitude": 42.42147,
      "longitude": -76.51801
    },
    "id": "AD237",
    "name": "Maguire Volvo of Ithaca",
    "telephone": "(607) 257-1515",
    "url": "http://www.maguirevolvo.com"
  },
  {
    "address": {
      "addressCountry": "United States",
      "addressLocality": "Kalamazoo",
      "addressRegion": "MI",
      "postalCode": "49009",
      "streetAddress": "5622 W. Main"
    },
    "email": "kgreschak@maplehillauto.com",
    "geo": {
      "latitude": 42.2959976,
      "longitude": -85.67418
    },
    "id": "AA7YL",
    "name": "Maple Hill Volvo",
    "telephone": "(269) 342-6600",
    "url": "http://www.maplehillvolvo.com"
  },
  {
    "address": {
      "addressCountry": "United States",
      "addressLocality": "Margate",
      "addressRegion": "FL",
      "postalCode": "33063",
      "streetAddress": "2250 North State Road 7"
    },
    "email": "kloiseau@holmanauto.com",
    "geo": {
      "latitude": 26.25592,
      "longitude": -80.20122
    },
    "id": "ADYVQ",
    "name": "Margate Volvo",
    "telephone": "(954) 942-1600",
    "url": "http://www.margatevolvo.com"
  },
  {
    "address": {
      "addressCountry": "United States",
      "addressLocality": "Littleton",
      "addressRegion": "CO",
      "postalCode": "80121",
      "streetAddress": "6060 South Broadway"
    },
    "email": "volvosales@mcdonaldag.com",
    "geo": {
      "latitude": 39.6063957,
      "longitude": -104.9878
    },
    "id": "AA7TC",
    "name": "McDonald Automotive Group Volvo",
    "telephone": "(303) 794-2626",
    "url": "http://www.mcdonaldvolvo.com"
  },
  {
    "address": {
      "addressCountry": "United States",
      "addressLocality": "San Leandro",
      "addressRegion": "CA",
      "postalCode": "94577",
      "streetAddress": "467 Marina Blvd."
    },
    "email": "ileads@mckevitt.com",
    "geo": {
      "latitude": 37.71543,
      "longitude": -122.1543
    },
    "id": "ACO96",
    "name": "McKevitt Volvo",
    "telephone": "(510) 895-5000",
    "url": "http://www.mckevittvolvo.com"
  },
  {
    "address": {
      "addressCountry": "United States",
      "addressLocality": "Moline",
      "addressRegion": "IL",
      "postalCode": "61265",
      "streetAddress": "4101 41st Street"
    },
    "email": "mclaughlin@mcmotors.com",
    "geo": {
      "latitude": 41.47139,
      "longitude": -90.47591
    },
    "id": "ADXB6",
    "name": "McLaughlin Volvo",
    "telephone": "(309) 797-5654",
    "url": "http://www.qcvolvo.com"
  },
  {
    "address": {
      "addressCountry": "United States",
      "addressLocality": "Manchester",
      "addressRegion": "NH",
      "postalCode": "03108",
      "streetAddress": "40-56 Merrimack Street"
    },
    "email": "asaidel@merrimackstvolvo.com",
    "geo": {
      "latitude": 42.98932,
      "longitude": -71.46182
    },
    "id": "AA7QC",
    "name": "Merrimack Street Volvo",
    "telephone": "(603) 623-8015",
    "url": "http://www.merrimackstvolvo.com"
  },
  {
    "address": {
      "addressCountry": "United States",
      "addressLocality": "Lebanon",
      "addressRegion": "NH",
      "postalCode": "03766",
      "streetAddress": "175 Heater Rd."
    },
    "email": "JLANFRANCONI@AOL.COM",
    "geo": {
      "latitude": 43.6535645,
      "longitude": -72.24409
    },
    "id": "AB8WN",
    "name": "Miller Volvo of Lebanon",
    "telephone": "(603) 448-6363",
    "url": "http://www.millerautogroupvolvo.com"
  },
  {
    "address": {
      "addressCountry": "United States",
      "addressLocality": "Torrington",
      "addressRegion": "CT",
      "postalCode": "06790",
      "streetAddress": "450 New Litchfield St (Rt. 202)"
    },
    "email": "jschmahl@mitchellautogroup.com",
    "geo": {
      "latitude": 41.8069038,
      "longitude": -73.11133
    },
    "id": "ACNJ4",
    "name": "Mitchell Volvo of Litchfield Hills",
    "telephone": "(860) 496-5090",
    "url": "http://www.volvolitchfieldhills.com"
  },
  {
    "address": {
      "addressCountry": "United States",
      "addressLocality": "Simsbury",
      "addressRegion": "CT",
      "postalCode": "06070",
      "streetAddress": "384 Hopmeadow St."
    },
    "email": "bmccarthy@mitchellautogroup.com",
    "geo": {
      "latitude": 41.8511925,
      "longitude": -72.81282
    },
    "id": "AA7ZL",
    "name": "Mitchell Volvo of Simsbury",
    "telephone": "(860) 408-6065",
    "url": "http://www.mitchellvolvo.com"
  },
  {
    "address": {
      "addressCountry": "United States",
      "addressLocality": "Houston",
      "addressRegion": "TX",
      "postalCode": "77074",
      "streetAddress": "10150 Southwest Freeway"
    },
    "email": "sales@momentumjvp.com",
    "geo": {
      "latitude": 29.6694279,
      "longitude": -95.54964
    },
    "id": "AA7SR",
    "name": "Momentum Volvo",
    "telephone": "(800) 548-2952",
    "url": "http://www.momentumvolvo.net"
  },
  {
    "address": {
      "addressCountry": "United States",
      "addressLocality": "Cleveland",
      "addressRegion": "OH",
      "postalCode": "44129",
      "streetAddress": "9600 Brookpark Road\u00a0"
    },
    "email": "sales@westsideautomotivegroup.com",
    "geo": {
      "latitude": 41.4186363,
      "longitude": -81.75216
    },
    "id": "ADVD5",
    "name": "Montrose Volvo of Cleveland\u00a0",
    "telephone": "(216) 351-9999",
    "url": "http://www.volvoofclevelandoh.com"
  },
  {
    "address": {
      "addressCountry": "United States",
      "addressLocality": "Bedford",
      "addressRegion": "OH",
      "postalCode": "44146",
      "streetAddress": "18123 Rockside Rd"
    },
    "email": "info@motorcarsvolvo.com",
    "geo": {
      "latitude": 41.4031944,
      "longitude": -81.55201
    },
    "id": "AA7YW",
    "name": "Motorcars Volvo",
    "telephone": "(440) 439-8400",
    "url": "http://www.motorcarsvolvo.com"
  },
  {
    "address": {
      "addressCountry": "United States",
      "addressLocality": "Mount Kisco",
      "addressRegion": "NY",
      "postalCode": "10549",
      "streetAddress": "299 Kisco Avenue"
    },
    "email": "mkvsales@thepremiercollection.com",
    "geo": {
      "latitude": 41.2194862,
      "longitude": -73.7261
    },
    "id": "AA7RM",
    "name": "Mt. Kisco Volvo",
    "telephone": "(888) 247-2672",
    "url": "http://www.mtkiscovolvo.com"
  },
  {
    "address": {
      "addressCountry": "United States",
      "addressLocality": "Schererville",
      "addressRegion": "IN",
      "postalCode": "46375",
      "streetAddress": "1349 Indianapolis Blvd"
    },
    "email": "RLANE@NAPLETON.COM",
    "geo": {
      "latitude": 41.49953,
      "longitude": -87.47091
    },
    "id": "ADWTU",
    "name": "Napleton Volvo",
    "telephone": "(219) 865-3800",
    "url": "http://www.napletonvolvoin.com"
  },
  {
    "address": {
      "addressCountry": "United States",
      "addressLocality": "Sacramento",
      "addressRegion": "CA",
      "postalCode": "95841",
      "streetAddress": "4609 Madison Avenue"
    },
    "email": "volvo.sales@niello.com",
    "geo": {
      "latitude": 38.6610451,
      "longitude": -121.35733
    },
    "id": "AEDQH",
    "name": "Niello Volvo of Sacramento",
    "telephone": "(916) 488-2400",
    "url": "http://www.niellovolvoofsacramento.com"
  },
  {
    "address": {
      "addressCountry": "United States",
      "addressLocality": "Alpharetta",
      "addressRegion": "GA",
      "postalCode": "30009",
      "streetAddress": "1570 Mansell Road"
    },
    "email": "info@northpointvolvo.com",
    "geo": {
      "latitude": 34.04028,
      "longitude": -84.32059
    },
    "id": "ADDDE",
    "name": "North Point Volvo",
    "telephone": "(678) 365-0600",
    "url": "http://www.northpointvolvo.com"
  },
  {
    "address": {
      "addressCountry": "United States",
      "addressLocality": "Little Rock",
      "addressRegion": "AR",
      "postalCode": "72211",
      "streetAddress": "1500 North Shackleford Rd"
    },
    "email": "sales@northpointauto.dealerspace.com",
    "geo": {
      "latitude": 34.7664,
      "longitude": -92.39603
    },
    "id": "AC3TG",
    "name": "North Point Volvo",
    "telephone": "(501) 224-3200",
    "url": "http://www.littlerockvolvo.com"
  },
  {
    "address": {
      "addressCountry": "United States",
      "addressLocality": "Williamsville",
      "addressRegion": "NY",
      "postalCode": "14231",
      "streetAddress": "8135 Main Street"
    },
    "email": "sales@northtownauto.dealerspace.com",
    "geo": {
      "latitude": 42.9649467,
      "longitude": -78.69226
    },
    "id": "AD3NN",
    "name": "Northtown Volvo of Buffalo",
    "telephone": "(888) 504-4087",
    "url": "http://www.volvoofbuffalo.com"
  },
  {
    "address": {
      "addressCountry": "United States",
      "addressLocality": "Ontario",
      "addressRegion": "CA",
      "postalCode": "91761",
      "streetAddress": "1300 Auto Center Drive"
    },
    "email": "sales@ontariovolvo.com",
    "geo": {
      "latitude": 34.04987,
      "longitude": -117.5451
    },
    "id": "AA7TQ",
    "name": "Ontario Volvo",
    "telephone": "(909) 605-5700",
    "url": "http://www.ontariovolvocars.com"
  },
  {
    "address": {
      "addressCountry": "United States",
      "addressLocality": "Jacksonville",
      "addressRegion": "FL",
      "postalCode": "32256",
      "streetAddress": "10863 Phillips Highway"
    },
    "email": "info@osteenvolvo.com",
    "geo": {
      "latitude": 30.1716347,
      "longitude": -81.54376
    },
    "id": "AA7VU",
    "name": "OSteen Volvo of Jacksonville",
    "telephone": "(904) 396-5486",
    "url": "http://www.osteenvolvo.com"
  },
  {
    "address": {
      "addressCountry": "United States",
      "addressLocality": "West Nyack",
      "addressRegion": "NY",
      "postalCode": "10994",
      "streetAddress": "55 Route 303"
    },
    "email": "PALISADESVOLVOSALES@THEPREMIERCOLLECTION.COM",
    "geo": {
      "latitude": 41.0950851,
      "longitude": -73.95069
    },
    "id": "ABSKD",
    "name": "Palisades Volvo",
    "telephone": "(888) 223-5622",
    "url": "http://www.palisadesvolvo.com"
  },
  {
    "address": {
      "addressCountry": "United States",
      "addressLocality": "Cathedral City",
      "addressRegion": "CA",
      "postalCode": "92234",
      "streetAddress": "67-977 East Palm Canyon Drive"
    },
    "email": "volvos@palmspringsvolvo.com",
    "geo": {
      "latitude": 33.7844772,
      "longitude": -116.4758
    },
    "id": "AC84R",
    "name": "Palm Springs Volvo",
    "telephone": "(760) 321-6600",
    "url": "http://www.palmspringsvolvo.com"
  },
  {
    "address": {
      "addressCountry": "United States",
      "addressLocality": "Hickory",
      "addressRegion": "NC",
      "postalCode": "28602",
      "streetAddress": "1205 South Center St."
    },
    "email": "volvosales@paramountauto.com",
    "geo": {
      "latitude": 35.7158051,
      "longitude": -81.33763
    },
    "id": "AD3PA",
    "name": "Paramount Volvo of Hickory",
    "telephone": "(828) 328-1050 ",
    "url": "http://www.ParamountVolvoHickory.com"
  },
  {
    "address": {
      "addressCountry": "United States",
      "addressLocality": "Dallas",
      "addressRegion": "TX",
      "postalCode": "75209",
      "streetAddress": "3515 Inwood Ave."
    },
    "email": "volvonewinternetsales@parkplacetexas.com ",
    "geo": {
      "latitude": 32.8308067,
      "longitude": -96.82594
    },
    "id": "AD5Q9",
    "name": "Park Place Volvo",
    "telephone": "(214) 956-5500",
    "url": "http://www.parkplacedallasvolvo.com"
  },
  {
    "address": {
      "addressCountry": "United States",
      "addressLocality": "Wilmington",
      "addressRegion": "NC",
      "postalCode": "28405",
      "streetAddress": "5920 Market Street"
    },
    "email": "thouse@parkwaysales-service.com",
    "geo": {
      "latitude": 34.2487335,
      "longitude": -77.86127
    },
    "id": "AA7XW",
    "name": "Parkway Volvo",
    "telephone": "(910) 392-4888",
    "url": "http://www.parkwayvolvo.com"
  },
  {
    "address": {
      "addressCountry": "United States",
      "addressLocality": "Schaumburg",
      "addressRegion": "IL",
      "postalCode": "82640",
      "streetAddress": "1600 E. Higgins Rd."
    },
    "email": "patrickvolvo@patrickcars.com",
    "geo": {
      "latitude": 42.0386467,
      "longitude": -88.04036
    },
    "id": "AC4WH",
    "name": "Patrick Volvo",
    "telephone": "(847) 605-4005",
    "url": "http://www.patrickvolvo.com"
  },
  {
    "address": {
      "addressCountry": "United States",
      "addressLocality": "Jackson",
      "addressRegion": "MS",
      "postalCode": "39202",
      "streetAddress": "740 Larson St."
    },
    "email": "paulmoak@paulmoak.com",
    "geo": {
      "latitude": 32.3046341,
      "longitude": -90.16793
    },
    "id": "AA7SK",
    "name": "Paul Moak Volvo",
    "telephone": "(601) 352-2700",
    "url": "http://www.paulmoakvolvo.com"
  },
  {
    "address": {
      "addressCountry": "United States",
      "addressLocality": "Hawthorne",
      "addressRegion": "NJ",
      "postalCode": "07506",
      "streetAddress": "990 Goffle Road"
    },
    "email": "Sales@paulsvolvo.com",
    "geo": {
      "latitude": 40.96641,
      "longitude": -74.15675
    },
    "id": "AA7RA",
    "name": "Pauls Motors Sales & Service, Inc.",
    "telephone": "(973) 427-5777",
    "url": "http://www.hawthornevolvo.com"
  },
  {
    "address": {
      "addressCountry": "United States",
      "addressLocality": "Fort Collins",
      "addressRegion": "CO",
      "postalCode": "80525",
      "streetAddress": "4455 South Mason Street"
    },
    "email": "sales@pedersenvolvo.com",
    "geo": {
      "latitude": 40.52547,
      "longitude": -105.079292
    },
    "id": "AA7S0",
    "name": "Pedersen Volvo, Ltd.",
    "telephone": "(970) 223-8500",
    "url": "http://www.pedersenvolvo.com"
  },
  {
    "address": {
      "addressCountry": "United States",
      "addressLocality": "Sinking Spring",
      "addressRegion": "PA",
      "postalCode": "19608",
      "streetAddress": "5050 West Penn Avenue"
    },
    "email": "PerformanceMO@aol.com",
    "geo": {
      "latitude": 40.3259621,
      "longitude": -76.03009
    },
    "id": "AD5RG",
    "name": "Performance Volvo",
    "telephone": "(610) 685-8100",
    "url": "http://www.performancevolvo.com"
  },
  {
    "address": {
      "addressCountry": "United States",
      "addressLocality": "South Deerfield",
      "addressRegion": "MA",
      "postalCode": "01373",
      "streetAddress": "253 Greenfield Road"
    },
    "email": "info@pioneersaabvolvo.com",
    "geo": {
      "latitude": 42.511734,
      "longitude": -72.60573
    },
    "id": "AA7R1",
    "name": "Pioneer Valley Sales & Service, Inc.",
    "telephone": "(413) 665-4356",
    "url": "http://www.pioneervolvo.com"
  },
  {
    "address": {
      "addressCountry": "United States",
      "addressLocality": "Scarborough",
      "addressRegion": "ME",
      "postalCode": "04074",
      "streetAddress": "9 US Route 1"
    },
    "email": "email@portlandvolvo.com",
    "geo": {
      "latitude": 43.6120148,
      "longitude": -70.31308
    },
    "id": "AA7QE",
    "name": "Portland Volvo",
    "telephone": "(207) 883-5568",
    "url": "http://www.portlandvolvo.com"
  },
  {
    "address": {
      "addressCountry": "United States",
      "addressLocality": "East Hanover",
      "addressRegion": "NJ",
      "postalCode": "07936",
      "streetAddress": "285 East Route 10"
    },
    "email": "leads@prestigevolvo.com",
    "geo": {
      "latitude": 40.8073921,
      "longitude": -74.37482
    },
    "id": "AA7RB",
    "name": "Prestige Volvo",
    "telephone": "(973) 884-2400",
    "url": "http://www.prestigevolvo.com"
  },
  {
    "address": {
      "addressCountry": "United States",
      "addressLocality": "Lexington",
      "addressRegion": "KY",
      "postalCode": "40509",
      "streetAddress": "1490 New Circle Rd, NE"
    },
    "email": "Quancadi@aol.com",
    "geo": {
      "latitude": 38.02302,
      "longitude": -84.45481
    },
    "id": "AA7ZA",
    "name": "Quantrell Volvo",
    "telephone": "(859) 266-2161",
    "url": "http://www.quantrellvolvo.com"
  },
  {
    "address": {
      "addressCountry": "United States",
      "addressLocality": "Ramsey",
      "addressRegion": "NJ",
      "postalCode": "07446",
      "streetAddress": "585 Route 17 South"
    },
    "email": "SALES@RAMSEY.WIRELESSRESPONSE.COM",
    "geo": {
      "latitude": 41.0576973,
      "longitude": -74.12166
    },
    "id": "AA7RC",
    "name": "Ramsey Volvo",
    "telephone": "(201) 327-5105",
    "url": "http://www.ramseyvolvonj.com"
  },
  {
    "address": {
      "addressCountry": "United States",
      "addressLocality": "East Stroudsburg",
      "addressRegion": "PA",
      "postalCode": "18301",
      "streetAddress": "505 Fawn Street"
    },
    "email": "volvosales@raypricecars.com",
    "geo": {
      "latitude": 41.0219269,
      "longitude": -75.1856155
    },
    "id": "AD2GG",
    "name": "Ray Price Volvo of the Poconos",
    "telephone": "(570) 421-2000",
    "url": "http://www.raypricevolvo.com"
  },
  {
    "address": {
      "addressCountry": "United States",
      "addressLocality": "Red Bank",
      "addressRegion": "NJ",
      "postalCode": "07701",
      "streetAddress": "100 East Newman Springs Road"
    },
    "email": "rich@redbankvolvo.com",
    "geo": {
      "latitude": 40.3381462,
      "longitude": -74.06709
    },
    "id": "AA7RD",
    "name": "Red Bank Volvo, Inc.",
    "telephone": "(732) 741-5886",
    "url": "http://www.redbankvolvo.com"
  },
  {
    "address": {
      "addressCountry": "United States",
      "addressLocality": "Denver",
      "addressRegion": "CO",
      "postalCode": "80203",
      "streetAddress": "777 Broadway"
    },
    "email": "rsealey@rickenbaugh.com",
    "geo": {
      "latitude": 39.7286644,
      "longitude": -104.9876
    },
    "id": "AA7TD",
    "name": "Rickenbaugh Volvo, Inc.",
    "telephone": "(303) 573-7773",
    "url": "http://www.rickenbaughvolvo.com"
  },
  {
    "address": {
      "addressCountry": "United States",
      "addressLocality": "Austin",
      "addressRegion": "TX",
      "postalCode": "78723",
      "streetAddress": "6375 East Highway 290 East"
    },
    "email": "VOLVO@VOLVOAUSTIN.COM",
    "geo": {
      "latitude": 30.3214054,
      "longitude": -97.70069
    },
    "id": "AA7ST",
    "name": "Roger Beasley Volvo",
    "telephone": "(512) 452-0266",
    "url": "http://www.rogerbeasleyvolvotx.com"
  },
  {
    "address": {
      "addressCountry": "United States",
      "addressLocality": "Georgetown",
      "addressRegion": "TX",
      "postalCode": "78626",
      "streetAddress": "7501 South IH 35"
    },
    "email": "volvo@volvogeorgetown.com",
    "geo": {
      "latitude": 30.57924,
      "longitude": -97.69189
    },
    "id": "ADX4P",
    "name": "Roger Beasley Volvo of Georgetown",
    "telephone": "(512) 930-2111",
    "url": "http://www.volvoofgeorgetowntx.com"
  },
  {
    "address": {
      "addressCountry": "United States",
      "addressLocality": "Vestavia Hills",
      "addressRegion": "AL",
      "postalCode": "35216",
      "streetAddress": "3010 Columbiana Road"
    },
    "email": "rrobinson@royalautomotive.net",
    "geo": {
      "latitude": 33.41375,
      "longitude": -86.80733
    },
    "id": "ADS2M",
    "name": "Royal Volvo",
    "telephone": "(205) 823-3100",
    "url": "http://www.royalvolvo.net"
  },
  {
    "address": {
      "addressCountry": "United States",
      "addressLocality": "Pasadena",
      "addressRegion": "CA",
      "postalCode": "91107",
      "streetAddress": "2025 E. Colorado Blvd."
    },
    "email": "sales@rusnakvolvo.dealerspace.com",
    "geo": {
      "latitude": 34.14646,
      "longitude": -118.108429
    },
    "id": "AA7TU",
    "name": "RUSNAK/Pasadena",
    "telephone": "(626) 577-6661",
    "url": "http://www.rusnakvolvoca.com"
  },
  {
    "address": {
      "addressCountry": "United States",
      "addressLocality": "North Clarendon",
      "addressRegion": "VT",
      "postalCode": "05759",
      "streetAddress": "Routes 7 and 103, PO Box 67"
    },
    "email": "aic@automobile-international.com",
    "geo": {
      "latitude": 43.5411263,
      "longitude": -72.95821
    },
    "id": "AA7P6",
    "name": "Rutland Volvo",
    "telephone": "(802) 773-3329",
    "url": "http://www.rutlandvolvo.com/index.htm"
  },
  {
    "address": {
      "addressCountry": "United States",
      "addressLocality": "Lynnwood",
      "addressRegion": "WA",
      "postalCode": "98037",
      "streetAddress": "17025 Highway 99"
    },
    "email": "sales@sandbergvolvo.com",
    "geo": {
      "latitude": 47.84413,
      "longitude": -122.2954
    },
    "id": "AA7VB",
    "name": "Sandberg Northwest Volvo",
    "telephone": "(425) 741-1400",
    "url": "http://www.sandbergvolvo.com"
  },
  {
    "address": {
      "addressCountry": "United States",
      "addressLocality": "Bakersfield",
      "addressRegion": "CA",
      "postalCode": "93313",
      "streetAddress": "5500 Gasoline Alley Drive"
    },
    "email": "sales@sangera.com",
    "geo": {
      "latitude": 35.30471,
      "longitude": -119.0353
    },
    "id": "AB5WX",
    "name": "Sangera Volvo",
    "telephone": "(661) 858-6586",
    "url": "http://www.sangeravolvo.com"
  },
  {
    "address": {
      "addressCountry": "United States",
      "addressLocality": "Santa Fe",
      "addressRegion": "NM",
      "postalCode": "87505",
      "streetAddress": "2704 Cerrillos Road"
    },
    "email": "sales@santafecars.com",
    "geo": {
      "latitude": 35.6576653,
      "longitude": -105.9875
    },
    "id": "AA7TF",
    "name": "Santa Fe Volvo",
    "telephone": "(505) 471-6700",
    "url": "http://www.volvosantafe.com"
  },
  {
    "address": {
      "addressCountry": "United States",
      "addressLocality": "Allentown",
      "addressRegion": "PA",
      "postalCode": "18103",
      "streetAddress": "3209 Lehigh Street"
    },
    "email": "volvo@scottcars.com",
    "geo": {
      "latitude": 40.5571022,
      "longitude": -75.48842
    },
    "id": "ADZ2S",
    "name": "Scott Volvo of Allentown",
    "telephone": "(610) 791-1221",
    "url": "http://www.lehighvalleyvolvo.com"
  },
  {
    "address": {
      "addressCountry": "United States",
      "addressLocality": "New London",
      "addressRegion": "CT",
      "postalCode": "06320",
      "streetAddress": "575 Broad Street"
    },
    "email": "secorvolvosaab@eleadtrack.net",
    "geo": {
      "latitude": 41.3660774,
      "longitude": -72.12162
    },
    "id": "AA7QO",
    "name": "Secor Volvo",
    "telephone": "(860) 442-3232",
    "url": "http://www.secorvolvo.com"
  },
  {
    "address": {
      "addressCountry": "United States",
      "addressLocality": "Vestal",
      "addressRegion": "NY",
      "postalCode": "13850",
      "streetAddress": "3101 Vestal Parkway East"
    },
    "email": "snissan@stny.rr.com",
    "geo": {
      "latitude": 42.0955658,
      "longitude": -76.00431
    },
    "id": "AA7R9",
    "name": "Serafini Volvo",
    "telephone": "(607) 729-3511",
    "url": "http://www.serafinivolvo.com"
  },
  {
    "address": {
      "addressCountry": "United States",
      "addressLocality": "Ann Arbor",
      "addressRegion": "MI",
      "postalCode": "48103",
      "streetAddress": "3990 Jackson Avenue"
    },
    "email": "sesivolvo@salespoint.dealerconnection.com",
    "geo": {
      "latitude": 42.2852554,
      "longitude": -83.80934
    },
    "id": "ADJN8",
    "name": "Sesi Volvo",
    "telephone": "(734) 668-6100",
    "url": "http://www.annarborvolvo.com"
  },
  {
    "address": {
      "addressCountry": "United States",
      "addressLocality": "Eugene",
      "addressRegion": "OR",
      "postalCode": "97402",
      "streetAddress": "2300 West 7th Ave."
    },
    "email": "sheppard@sheppardmotors.com",
    "geo": {
      "latitude": 44.0548477,
      "longitude": -123.1291
    },
    "id": "AA7U6",
    "name": "Sheppard Volvo",
    "telephone": "(541) 343-8811",
    "url": "http://www.sheppardvolvo.com"
  },
  {
    "address": {
      "addressCountry": "United States",
      "addressLocality": "Broomfield",
      "addressRegion": "CO",
      "postalCode": "80020",
      "streetAddress": "125 Alter Street"
    },
    "email": "stheurer@sthmotors.com",
    "geo": {
      "latitude": 39.9189835,
      "longitude": -105.0956
    },
    "id": "AC7MC",
    "name": "Sill-TerHar Motors, Inc.",
    "telephone": "(303) 469-1801",
    "url": "http://www.sthvolvo.com"
  },
  {
    "address": {
      "addressCountry": "United States",
      "addressLocality": "Charleston",
      "addressRegion": "WV",
      "postalCode": "25309",
      "streetAddress": "5 Dudley Farms Lane"
    },
    "email": "smithleads@smithcars.com",
    "geo": {
      "latitude": 38.3295555,
      "longitude": -81.71199
    },
    "id": "AA7WO",
    "name": "Smith Company Motor Cars",
    "telephone": "(304) 746-0700",
    "url": "http://www.smithcompanymotorcarsvolvo.com"
  },
  {
    "address": {
      "addressCountry": "United States",
      "addressLocality": "San Luis Obispo",
      "addressRegion": "CA",
      "postalCode": "93401",
      "streetAddress": "1219 Monterey Street"
    },
    "email": "volvosanluis@aol.com",
    "geo": {
      "latitude": 35.2834778,
      "longitude": -120.6582
    },
    "id": "AA7TR",
    "name": "Smith Volvo, Inc",
    "telephone": "(805) 543-0832",
    "url": "http://www.smithvolvo.com"
  },
  {
    "address": {
      "addressCountry": "United States",
      "addressLocality": "St. James",
      "addressRegion": "NY",
      "postalCode": "11780",
      "streetAddress": "633 Middle Country Road"
    },
    "email": "VolvosBest@SmithtownVolvo.com",
    "geo": {
      "latitude": 40.8603249,
      "longitude": -73.15706
    },
    "id": "AA7QU",
    "name": "Smithtown Volvo",
    "telephone": "(631) 724-0400",
    "url": "http://www.smithtownvolvo.com"
  },
  {
    "address": {
      "addressCountry": "United States",
      "addressLocality": "Bend",
      "addressRegion": "OR",
      "postalCode": "97701",
      "streetAddress": "20630 Grandview Drive"
    },
    "email": "JSM@smolichmotors.com",
    "geo": {
      "latitude": 44.11249,
      "longitude": -121.295021
    },
    "id": "AA7U8",
    "name": "Smolich Motors, Inc.",
    "telephone": "(541) 389-1177",
    "url": "http://www.smolichvolvo.com"
  },
  {
    "address": {
      "addressCountry": "United States",
      "addressLocality": "Santa Rosa",
      "addressRegion": "CA",
      "postalCode": "95407",
      "streetAddress": "2881 Corby Ave."
    },
    "email": "vileads@smotherseuropean.com ",
    "geo": {
      "latitude": 38.40705,
      "longitude": -122.7165
    },
    "id": "AA7UN",
    "name": "Smothers European",
    "telephone": "(707) 542-4810",
    "url": "http://www.smotherseuropeanvolvo.com"
  },
  {
    "address": {
      "addressCountry": "United States",
      "addressLocality": "Summit",
      "addressRegion": "NJ",
      "postalCode": "07901",
      "streetAddress": "40-42 River Road"
    },
    "email": "sales@smythevolvo.com",
    "geo": {
      "latitude": 40.7303925,
      "longitude": -74.37574
    },
    "id": "AA7RF",
    "name": "Smythe Volvo, Inc.",
    "telephone": "(908) 273-4200",
    "url": "http://www.smythevolvo.com"
  },
  {
    "address": {
      "addressCountry": "United States",
      "addressLocality": "Medford",
      "addressRegion": "OR",
      "postalCode": "97504",
      "streetAddress": "3103 Biddle Road"
    },
    "email": "internetteam@sosvm.com",
    "geo": {
      "latitude": 42.36161,
      "longitude": -122.8756
    },
    "id": "AA7ZR",
    "name": "Southern Oregon Volvo",
    "telephone": "(541) 245-2001",
    "url": "http://www.sovolvo.com"
  },
  {
    "address": {
      "addressCountry": "United States",
      "addressLocality": "East Petersburg",
      "addressRegion": "PA",
      "postalCode": "17520",
      "streetAddress": "5455 Manheim Pike"
    },
    "email": "stadelmotors@epix.net",
    "geo": {
      "latitude": 40.0929832,
      "longitude": -76.34965
    },
    "id": "AA7WU",
    "name": "Stadel Motors, Inc.",
    "telephone": "(717) 569-1050",
    "url": "http://www.stadelvolvo.com"
  },
  {
    "address": {
      "addressCountry": "United States",
      "addressLocality": "Stamford",
      "addressRegion": "CT",
      "postalCode": "06902",
      "streetAddress": "107 Myrtle Ave."
    },
    "email": "info@stamfordvolvo.com",
    "geo": {
      "latitude": 41.0526466,
      "longitude": -73.5261
    },
    "id": "AD5Q7",
    "name": "Stamford Volvo",
    "telephone": "(203) 359-2632",
    "url": "http://www.stamfordvolvo.com"
  },
  {
    "address": {
      "addressCountry": "United States",
      "addressLocality": "Houston",
      "addressRegion": "TX",
      "postalCode": "77024",
      "streetAddress": "7000 Katy Road"
    },
    "email": "volvo@starmotorcars.com",
    "geo": {
      "latitude": 29.7824688,
      "longitude": -95.44201
    },
    "id": "AA7S7",
    "name": "Star Motor Cars",
    "telephone": "(713) 868-6800",
    "url": "http://www.starmotorcarsvolvo.com"
  },
  {
    "address": {
      "addressCountry": "United States",
      "addressLocality": "Greensburg",
      "addressRegion": "PA",
      "postalCode": "15601",
      "streetAddress": "5200 State Route 30"
    },
    "email": "sales@starautomall.com",
    "geo": {
      "latitude": 40.303463,
      "longitude": -79.50465
    },
    "id": "AA7WR",
    "name": "Star Volvo",
    "telephone": "(724) 834-6100",
    "url": "http://www.greensburgvolvo.com"
  },
  {
    "address": {
      "addressCountry": "United States",
      "addressLocality": "Pawtucket",
      "addressRegion": "RI",
      "postalCode": "02861",
      "streetAddress": "766 Broadway"
    },
    "email": "sales@steingold.com",
    "geo": {
      "latitude": 41.8934746,
      "longitude": -71.3719254
    },
    "id": "AA7QQ",
    "name": "Steingold Volvo",
    "telephone": "(401) 723-4700",
    "url": "http://www.steingold.com"
  },
  {
    "address": {
      "addressCountry": "United States",
      "addressLocality": "West Chester",
      "addressRegion": "PA",
      "postalCode": "19382",
      "streetAddress": "1290 Wilmington Pike Route 202"
    },
    "email": "Sales@stillmanvolvo.com",
    "geo": {
      "latitude": 39.90743,
      "longitude": -75.56882
    },
    "id": "AA7WC",
    "name": "Stillman Volvo",
    "telephone": "(610) 399-1300",
    "url": "http://www.stillmanvolvo.com/"
  },
  {
    "address": {
      "addressCountry": "United States",
      "addressLocality": "Troy",
      "addressRegion": "MI",
      "postalCode": "48084",
      "streetAddress": "1795 Maple Lawn"
    },
    "email": "sales@suburbanauto.com",
    "geo": {
      "latitude": 42.5526581,
      "longitude": -83.1739
    },
    "id": "AA7YO",
    "name": "Suburban Volvo",
    "telephone": "(248) 458-2000",
    "url": "http://www.suburbanvolvo.com"
  },
  {
    "address": {
      "addressCountry": "United States",
      "addressLocality": "Champaign",
      "addressRegion": "IL",
      "postalCode": "61822",
      "streetAddress": "401 W Marketview Dr"
    },
    "email": "volvomb@aol.com",
    "geo": {
      "latitude": 40.1371574,
      "longitude": -88.24872
    },
    "id": "ABRQ8",
    "name": "Sullivan-Parkhill Imports, Inc.",
    "telephone": "(217) 352-4161",
    "url": "http://www.sullivan-parkhillvolvo.com"
  },
  {
    "address": {
      "addressCountry": "United States",
      "addressLocality": "Cranston",
      "addressRegion": "RI",
      "postalCode": "02920",
      "streetAddress": "1300 Pontiac Ave"
    },
    "email": "leads@tascacran.motosnap.com",
    "geo": {
      "latitude": 41.7924347,
      "longitude": -71.32546
    },
    "id": "AD5Q6",
    "name": "Tasca Volvo",
    "telephone": "(401) 681-1300",
    "url": "http://www.tascavolvo.com"
  },
  {
    "address": {
      "addressCountry": "United States",
      "addressLocality": "Winter Park",
      "addressRegion": "FL",
      "postalCode": "32789",
      "streetAddress": "1051 W Webster Avenue"
    },
    "email": "salesteam@volvowinterpark.com",
    "geo": {
      "latitude": 28.6040668,
      "longitude": -81.36338
    },
    "id": "AA7V2",
    "name": "The Volvo Store",
    "telephone": "(407) 628-0550",
    "url": "http://www.volvowinterpark.com"
  },
  {
    "address": {
      "addressCountry": "United States",
      "addressLocality": "Ft. Wayne",
      "addressRegion": "IN",
      "postalCode": "46804",
      "streetAddress": "910 Avenue of Autos"
    },
    "email": "croth@kelleyauto.com",
    "geo": {
      "latitude": 41.0763931,
      "longitude": -85.21682
    },
    "id": "AB8WP",
    "name": "Tom Kelley Volvo",
    "telephone": "(260) 434-4800",
    "url": "http://www.tomkelleyvolvo.com"
  },
  {
    "address": {
      "addressCountry": "United States",
      "addressLocality": "Indianapolis",
      "addressRegion": "IN",
      "postalCode": "46240",
      "streetAddress": "4620 E. 96th St"
    },
    "email": "skern@tomwood.com",
    "geo": {
      "latitude": 39.9270248,
      "longitude": -86.09382
    },
    "id": "AA7ZE",
    "name": "Tom Wood Volvo",
    "telephone": "(317) 848-7447",
    "url": "http://www.tomwoodvolvo.com"
  },
  {
    "address": {
      "addressCountry": "United States",
      "addressLocality": "Traverse City",
      "addressRegion": "MI",
      "postalCode": "49686",
      "streetAddress": "1301 S. Garfield Ave"
    },
    "email": "glennc@traversemotors.com",
    "geo": {
      "latitude": 44.74415,
      "longitude": -85.59511
    },
    "id": "AA7YK",
    "name": "Traverse City Volvo",
    "telephone": "(231) 946-5540",
    "url": "http://www.traversecityvolvo.com/"
  },
  {
    "address": {
      "addressCountry": "United States",
      "addressLocality": "Tamuning",
      "addressRegion": "Guam",
      "postalCode": "96913",
      "streetAddress": "470 N Marine Corps Drive"
    },
    "email": "militarysales@triplejguam.com",
    "geo": {
      "latitude": 13.4902811,
      "longitude": 144.78923
    },
    "id": "AD667",
    "name": "Triple J Volvo",
    "telephone": "(671) 649-3673",
    "url": "http://www.carsguam.com/"
  },
  {
    "address": {
      "addressCountry": "United States",
      "addressLocality": "Billings",
      "addressRegion": "MT",
      "postalCode": "59106",
      "streetAddress": "3671 Pierce Parkway"
    },
    "email": "jon.scott@underrinermotors.com",
    "geo": {
      "latitude": 45.73446,
      "longitude": -108.61039
    },
    "id": "AA7VE",
    "name": "Underriner Volvo",
    "telephone": "(406) 252-5101",
    "url": "http://www.underrinervolvomt.com"
  },
  {
    "address": {
      "addressCountry": "United States",
      "addressLocality": "Wilmington",
      "addressRegion": "DE",
      "postalCode": "19805",
      "streetAddress": "1704 Pennsylvania Avenue"
    },
    "email": "fursomarso@unionpark.com",
    "geo": {
      "latitude": 39.75475,
      "longitude": -75.56528
    },
    "id": "ACTN7",
    "name": "Union Park Volvo",
    "telephone": "(302) 658-7245",
    "url": "http://www.unionparkvolvo.com"
  },
  {
    "address": {
      "addressCountry": "United States",
      "addressLocality": "Charlotte",
      "addressRegion": "NC",
      "postalCode": "28262",
      "streetAddress": "7716 North Tryon Street"
    },
    "email": "universityvolvo@msn.com",
    "geo": {
      "latitude": 35.2931252,
      "longitude": -80.75555
    },
    "id": "AA7Z2",
    "name": "University Volvo",
    "telephone": "(704) 547-1095",
    "url": "http://www.universityvolvo.com"
  },
  {
    "address": {
      "addressCountry": "United States",
      "addressLocality": "Peoria",
      "addressRegion": "IL",
      "postalCode": "61615",
      "streetAddress": "2200 W. Pioneer Parkway"
    },
    "email": "info@veldeofpeoria.com.",
    "geo": {
      "latitude": 40.7832375,
      "longitude": -89.62511
    },
    "id": "ADG3Y",
    "name": "Velde Volvo",
    "telephone": "(309) 692-9880",
    "url": "http://www.veldevolvo.com"
  },
  {
    "address": {
      "addressCountry": "United States",
      "addressLocality": "Escondido",
      "addressRegion": "CA",
      "postalCode": "92029",
      "streetAddress": "1938 Auto Parkway"
    },
    "email": "info@volvoescondido.com",
    "geo": {
      "latitude": 33.11676,
      "longitude": -117.1102
    },
    "id": "ADYXS",
    "name": "Volvo Escondido",
    "telephone": "(760) 546-1200",
    "url": "http://www.volvoescondido.com"
  },
  {
    "address": {
      "addressCountry": "United States",
      "addressLocality": "Huntington",
      "addressRegion": "NY",
      "postalCode": "11743",
      "streetAddress": "345 W. Jericho Turnpike"
    },
    "email": "volvovilleusa@leads.gs.reyrey.com",
    "geo": {
      "latitude": 40.8285332,
      "longitude": -73.42523
    },
    "id": "AEDQ1",
    "name": "Volvo Huntington",
    "telephone": "(631) 271-1200",
    "url": "http://www.volvohuntington.com/index.htm"
  },
  {
    "address": {
      "addressCountry": "United States",
      "addressLocality": "Corte Madera",
      "addressRegion": "CA",
      "postalCode": "94925",
      "streetAddress": "201 Casa Buena Drive"
    },
    "email": "Sales@dealerspace.marinluxurycars.com",
    "geo": {
      "latitude": 37.924614,
      "longitude": -122.515
    },
    "id": "ADYK8",
    "name": "Volvo Marin",
    "telephone": "(415) 496-2200",
    "url": "http://www.volvomarin.com"
  },
  {
    "address": {
      "addressCountry": "United States",
      "addressLocality": "Athens",
      "addressRegion": "GA",
      "postalCode": "30606",
      "streetAddress": "2890 Atlanta Highway"
    },
    "email": "sales@volvooffathens.com",
    "geo": {
      "latitude": 33.94509,
      "longitude": -83.43628
    },
    "id": "AA7VM",
    "name": "Volvo of Athens",
    "telephone": "(706) 546-1033",
    "url": "http://www.volvoofathens.com"
  },
  {
    "address": {
      "addressCountry": "United States",
      "addressLocality": "Egg Harbor Township",
      "addressRegion": "NJ",
      "postalCode": "08234",
      "streetAddress": "6017 Black Horse Pike"
    },
    "email": "sales@nissaninfinitivolvoofac.com",
    "geo": {
      "latitude": 39.43752,
      "longitude": -74.61537
    },
    "id": "AEDGP",
    "name": "Volvo of Atlantic City",
    "telephone": "(609) 383-6100",
    "url": "http://www.volvoofatlanticcity.com/index.htm"
  },
  {
    "address": {
      "addressCountry": "United States",
      "addressLocality": "Bloomington",
      "addressRegion": "IN",
      "postalCode": "47401",
      "streetAddress": "3225 S. Walnut Street"
    },
    "email": "bsurian@royalsouth.com",
    "geo": {
      "latitude": 39.1278763,
      "longitude": -86.52659
    },
    "id": "AA7ZC",
    "name": "Volvo of Bloomington",
    "telephone": "(812) 339-1161",
    "url": "http://www.royalsouthvolvo.com/index.htm"
  },
  {
    "address": {
      "addressCountry": "United States",
      "addressLocality": "Normal",
      "addressRegion": "IL",
      "postalCode": "61761",
      "streetAddress": "1430 E. Ft Jesse Rd & Towanda"
    },
    "email": "dzavada@highergear.com",
    "geo": {
      "latitude": 40.51718,
      "longitude": -88.90317
    },
    "id": "AEBAM",
    "name": "Volvo of Bloomington Normal",
    "telephone": "(309) 454-1101",
    "url": "http://www.volvoofnormal.com/index.htm"
  },
  {
    "address": {
      "addressCountry": "United States",
      "addressLocality": "Bonita Springs",
      "addressRegion": "FL",
      "postalCode": "34134",
      "streetAddress": "28470 Tamiami Trail, S."
    },
    "email": "bonitaspringsinfinitivolvofl@eleadtrack.net",
    "geo": {
      "latitude": 26.323,
      "longitude": -81.80565
    },
    "id": "AD0R0",
    "name": "Volvo of Bonita Springs",
    "telephone": "(239) 948-7770",
    "url": "http://www.volvoofbonitasprings.com"
  },
  {
    "address": {
      "addressCountry": "United States",
      "addressLocality": "St. Louis",
      "addressRegion": "MO",
      "postalCode": "63143",
      "streetAddress": "7700 Manchester Rd"
    },
    "email": "customerservice@brentwoodvolvo.com",
    "geo": {
      "latitude": 38.61292,
      "longitude": -90.32715
    },
    "id": "AD0N7",
    "name": "Volvo of Brentwood",
    "telephone": "(314) 644-9501",
    "url": "http://www.volvoofbrentwood.com"
  },
  {
    "address": {
      "addressCountry": "United States",
      "addressLocality": "Burlingame",
      "addressRegion": "CA",
      "postalCode": "94010",
      "streetAddress": "900 Peninsula Avenue"
    },
    "email": "rreplies@putnamauto.com",
    "geo": {
      "latitude": 37.577755,
      "longitude": -122.33847
    },
    "id": "AA7UK",
    "name": "Volvo of Burlingame",
    "telephone": "(650) 558-5679",
    "url": "http://www.volvoofburlingame.com"
  },
  {
    "address": {
      "addressCountry": "United States",
      "addressLocality": "Burlington",
      "addressRegion": "NC",
      "postalCode": "27215",
      "streetAddress": "660 Huffman Mill Road"
    },
    "email": "VolvoSalesBurlington@flowauto.com",
    "geo": {
      "latitude": 36.0727348,
      "longitude": -79.492
    },
    "id": "AEC5L",
    "name": "Volvo of Burlington",
    "telephone": "(336) 227-2727",
    "url": "http://www.volvoofburlington.com/index.htm"
  },
  {
    "address": {
      "addressCountry": "United States",
      "addressLocality": "Hyannis",
      "addressRegion": "MA",
      "postalCode": "02601",
      "streetAddress": "25 Falmouth Road"
    },
    "email": "volvosales@premiermotive.com ",
    "geo": {
      "latitude": 41.651535,
      "longitude": -70.2918243
    },
    "id": "AD8IM",
    "name": "Volvo of Cape Cod",
    "telephone": "(508) 775-4526",
    "url": "http://www.capecodvolvo.com"
  },
  {
    "address": {
      "addressCountry": "United States",
      "addressLocality": "Cary",
      "addressRegion": "NC",
      "postalCode": "27513",
      "streetAddress": "1375 NW Maynard Rd."
    },
    "email": "sales@volvocary.com",
    "geo": {
      "latitude": 35.7931557,
      "longitude": -78.80513
    },
    "id": "ADX2V",
    "name": "Volvo of Cary",
    "telephone": "(919) 238-2140",
    "url": "http://www.volvocary.com"
  },
  {
    "address": {
      "addressCountry": "United States",
      "addressLocality": "Charleston",
      "addressRegion": "SC",
      "postalCode": "29407",
      "streetAddress": "1518 Savannah Highway"
    },
    "email": "RHImports@hendrickauto.com",
    "geo": {
      "latitude": 32.7860832,
      "longitude": -80.00821
    },
    "id": "AA7VQ",
    "name": "Volvo of Charleston",
    "telephone": "(843) 571-2727",
    "url": "http://www.volvoofcharleston.com"
  },
  {
    "address": {
      "addressCountry": "United States",
      "addressLocality": "Charlotte",
      "addressRegion": "NC",
      "postalCode": "28227",
      "streetAddress": "7040 East Independence Blvd."
    },
    "email": "volvov@bellsouth.net",
    "geo": {
      "latitude": 35.1650658,
      "longitude": -80.74168
    },
    "id": "AA7Z1",
    "name": "Volvo of Charlotte",
    "telephone": "(704) 563-1000",
    "url": "http://www.volvocharlotte.com"
  },
  {
    "address": {
      "addressCountry": "United States",
      "addressLocality": "Charlottesville",
      "addressRegion": "VA",
      "postalCode": "22903",
      "streetAddress": "3025 Ivy Road"
    },
    "email": "lborches@volvoofcharlottesville.com",
    "geo": {
      "latitude": 38.0509453,
      "longitude": -78.55047
    },
    "id": "ADYFZ",
    "name": "Volvo of Charlottesville",
    "telephone": "(434) 295-4125",
    "url": "http://www.volvoofcharlottesville.com/"
  },
  {
    "address": {
      "addressCountry": "United States",
      "addressLocality": "West Chester",
      "addressRegion": "OH",
      "postalCode": "45069",
      "streetAddress": "5890 Mulhauser Road"
    },
    "email": "sales@volvocinti.com",
    "geo": {
      "latitude": 39.32126,
      "longitude": -84.42984
    },