[
  {
    "address": {
      "addressCountry": "United States",
      "addressLocality": "Woodside",
      "addressRegion": "NY",
      "postalCode": "11377",
      "streetAddress": "56-15 Northern Blvd."
    },
    "faxNumber": "(718)777-2310",
    "geo": {
      "latitude": 40.75354,
      "longitude": -73.90449
    },
    "id": "35180",
    "name": "City Mitsubishi-Ny",
    "telephone": "(718)777-8090",
    "url": "www.citymitsubishicars.com"
  },
  {
    "address": {
      "addressCountry": "United States",
      "addressLocality": "Palmdale",
      "addressRegion": "CA",
      "postalCode": "93551",
      "streetAddress": "401 Auto Vista Drive"
    },
    "faxNumber": "(661)449-8603",
    "geo": {
      "latitude": 34.59315,
      "longitude": -118.1366
    },
    "id": "05462",
    "name": "Camacho Mitsubishi",
    "telephone": "(661)344-1000",
    "url": "www.camachomitsubishi.com"
  },
  {
    "address": {
      "addressCountry": "United States",
      "addressLocality": "San Diego",
      "addressRegion": "CA",
      "postalCode": "92111",
      "streetAddress": "4595 Convoy St."
    },
    "faxNumber": "(858)467-1234",
    "geo": {
      "latitude": 32.823227,
      "longitude": -117.15516
    },
    "id": "05464",
    "name": "Kearny Mesa Mitsubishi",
    "telephone": "(858)362-7850",
    "url": "www.kearnymesamitsubishi.com"
  },
  {
    "address": {
      "addressCountry": "United States",
      "addressLocality": "Brownsville",
      "addressRegion": "TX",
      "postalCode": "78520-0000",
      "streetAddress": "4017 N. Expressway 83"
    },
    "faxNumber": "(956)350-9677",
    "geo": {
      "latitude": 25.96261,
      "longitude": -97.511154
    },
    "id": "44129",
    "name": "Ed Payne Mitsubishi",
    "telephone": "(956)350-4488",
    "url": "www.paynebrownsvillemitsubishi.com"
  },
  {
    "address": {
      "addressCountry": "United States",
      "addressLocality": "Sandy",
      "addressRegion": "UT",
      "postalCode": "84070",
      "streetAddress": "80 West Motor Park Avenue"
    },
    "faxNumber": "(801)208-2705",
    "geo": {
      "latitude": 40.554043,
      "longitude": -111.892784
    },
    "id": "45024",
    "name": "Riverton Mitsubishi",
    "telephone": "(801)208-2700",
    "url": "www.rivertonmitsubishi.com"
  },
  {
    "address": {
      "addressCountry": "United States",
      "addressLocality": "Saint George",
      "addressRegion": "UT",
      "postalCode": "84770",
      "streetAddress": "1600 S. Hilton Drive"
    },
    "faxNumber": "(435)674-5824",
    "geo": {
      "latitude": 37.080982,
      "longitude": -113.58495
    },
    "id": "45025",
    "name": "Painter's Sun Country Mitsubishi",
    "telephone": "(435)673-1600",
    "url": "www.suncountryauto.com"
  },
  {
    "address": {
      "addressCountry": "United States",
      "addressLocality": "Layton",
      "addressRegion": "UT",
      "postalCode": "84041",
      "streetAddress": "1711 N. Main Street"
    },
    "faxNumber": "(801)614-3001",
    "geo": {
      "latitude": 41.085922,
      "longitude": -111.99787
    },
    "id": "45026",
    "name": "Cutrubus Mitsubishi",
    "telephone": "(801)614-3000",
    "url": "www.laytonmitsubishi.com"
  },
  {
    "address": {
      "addressCountry": "United States",
      "addressLocality": "Orem",
      "addressRegion": "UT",
      "postalCode": "84058",
      "streetAddress": "273 South State Street"
    },
    "faxNumber": "(801)960-9149",
    "geo": {
      "latitude": 40.29179,
      "longitude": -111.69266
    },
    "id": "45027",
    "name": "Cougar Mitsubishi",
    "telephone": "(801)225-6866",
    "url": "www.cougarmitsubishi.com"
  },
  {
    "address": {
      "addressCountry": "United States",
      "addressLocality": "Orlando",
      "addressRegion": "FL",
      "postalCode": "32808",
      "streetAddress": "3772 West Colonial Drive"
    },
    "faxNumber": "(407)297-0287",
    "geo": {
      "latitude": 28.552547,
      "longitude": -81.4236
    },
    "id": "10012",
    "name": "Sport Mitsubishi",
    "telephone": "(407)291-1448",
    "url": "www.sportmitsubishi.com"
  },
  {
    "address": {
      "addressCountry": "United States",
      "addressLocality": "Oklahoma City",
      "addressRegion": "OK",
      "postalCode": "73122",
      "streetAddress": "5600 N.W. 39Th Street"
    },
    "faxNumber": "(405)789-3317",
    "geo": {
      "latitude": 35.511185,
      "longitude": -97.61298
    },
    "id": "37035",
    "name": "Cable Mitsubishi",
    "telephone": "(405)787-0433",
    "url": "www.cablemitsubishi.com"
  },
  {
    "address": {
      "addressCountry": "United States",
      "addressLocality": "Olympia",
      "addressRegion": "WA",
      "postalCode": "98502",
      "streetAddress": "2200 Carriage Street Sw"
    },
    "faxNumber": "(360)352-8678",
    "geo": {
      "latitude": 47.03055,
      "longitude": -122.93088
    },
    "id": "48056",
    "name": "Olympia Mitsubishi-Wa",
    "telephone": "(360)352-8558",
    "url": "www.olympiamitsubishi.com"
  },
  {
    "address": {
      "addressCountry": "United States",
      "addressLocality": "Manhattan",
      "addressRegion": "KS",
      "postalCode": "66502-5060",
      "streetAddress": "600 Mccall Rd."
    },
    "faxNumber": "(785)776-0537",
    "geo": {
      "latitude": 39.189507,
      "longitude": -96.54685
    },
    "id": "17008",
    "name": "Murdock Mitsubishi",
    "telephone": "(785)776-1950",
    "url": "www.murdockmitsubishi.com"
  },
  {
    "address": {
      "addressCountry": "United States",
      "addressLocality": "Nicholasville",
      "addressRegion": "KY",
      "postalCode": "40356",
      "streetAddress": "3001 Lexington Rd"
    },
    "faxNumber": "(859)885-1308",
    "geo": {
      "latitude": 37.930862,
      "longitude": -84.549385
    },
    "id": "18027",
    "name": "Glenn Mitsubishi",
    "telephone": "(859)885-1000",
    "url": null
  },
  {
    "address": {
      "addressCountry": "United States",
      "addressLocality": "Radcliff",
      "addressRegion": "KY",
      "postalCode": "40160-0000",
      "streetAddress": "253 South Dixie Blvd."
    },
    "faxNumber": "(270)351-4170",
    "geo": {
      "latitude": 37.8376,
      "longitude": -85.936264
    },
    "id": "18016",
    "name": "Swope Mitsubishi",
    "telephone": "(270)351-2181",
    "url": null
  },
  {
    "address": {
      "addressCountry": "United States",
      "addressLocality": "Oakland",
      "addressRegion": "CA",
      "postalCode": "94612",
      "streetAddress": "2500 Webster Street"
    },
    "faxNumber": "(510)267-0622",
    "geo": {
      "latitude": 37.814053,
      "longitude": -122.26475
    },
    "id": "05459",
    "name": "Oakland Mitsubishi",
    "telephone": "(510)267-0688",
    "url": "www.oaklandmitsubishi.com"
  },
  {
    "address": {
      "addressCountry": "United States",
      "addressLocality": "Pikeville",
      "addressRegion": "KY",
      "postalCode": "41501-0000",
      "streetAddress": "3987 North Mayo Trail"
    },
    "faxNumber": "(606)437-0062",
    "geo": {
      "latitude": 37.520775,
      "longitude": -82.568954
    },
    "id": "18019",
    "name": "Walters Mitsubishi",
    "telephone": "(606)437-9810",
    "url": "www.waltersmitsubishisales.com"
  },
  {
    "address": {
      "addressCountry": "United States",
      "addressLocality": "High Point",
      "addressRegion": "NC",
      "postalCode": "27262",
      "streetAddress": "410 Eastchester Drive"
    },
    "faxNumber": "(336)841-6204",
    "geo": {
      "latitude": 35.98386,
      "longitude": -80.01189
    },
    "id": "28054",
    "name": "Vann York Mitsubishi",
    "telephone": "(336)841-6200",
    "url": "www.vannyorkmitsubishi.com"
  },
  {
    "address": {
      "addressCountry": "United States",
      "addressLocality": "Mesquite",
      "addressRegion": "TX",
      "postalCode": "75150",
      "streetAddress": "16200 Lbj Freeway"
    },
    "faxNumber": "(469)221-8100",
    "geo": {
      "latitude": 32.832123,
      "longitude": -96.63099
    },
    "id": "44218",
    "name": "Absolute Mitsubishi",
    "telephone": "(469)221-8000",
    "url": "absolutemitsubishi.com"
  },
  {
    "address": {
      "addressCountry": "United States",
      "addressLocality": "Houma",
      "addressRegion": "LA",
      "postalCode": "70360-4052",
      "streetAddress": "1190 W. Tunnel Boulevard"
    },
    "faxNumber": "(985)879-1382",
    "geo": {
      "latitude": 29.59502,
      "longitude": -90.74132
    },
    "id": "19016",
    "name": "Barker Mitsubishi",
    "telephone": "(985)879-1990",
    "url": "www.barkermitsubishi.com"
  },
  {
    "address": {
      "addressCountry": "United States",
      "addressLocality": "San Bernardino",
      "addressRegion": "CA",
      "postalCode": "92408",
      "streetAddress": "645 Auto Center Drive"
    },
    "faxNumber": "(909)763-4860",
    "geo": {
      "latitude": 34.073124,
      "longitude": -117.29676
    },
    "id": "05452",
    "name": "San Bernardino Mitsubishi",
    "telephone": "(909)884-7700",
    "url": "www.sbmitsu.com"
  },
  {
    "address": {
      "addressCountry": "United States",
      "addressLocality": "West Springfield",
      "addressRegion": "MA",
      "postalCode": "01089",
      "streetAddress": "526 Riverdale Street"
    },
    "faxNumber": "(413)739-5380",
    "geo": {
      "latitude": 42.120533,
      "longitude": -72.6255
    },
    "id": "20072",
    "name": "Bertera Mitsubishi",
    "telephone": "(413)781-9047",
    "url": "www.berteramitsubishi.com"
  },
  {
    "address": {
      "addressCountry": "United States",
      "addressLocality": "Danvers",
      "addressRegion": "MA",
      "postalCode": "01923",
      "streetAddress": "80 Andover Street"
    },
    "faxNumber": "(978)777-8739",
    "geo": {
      "latitude": 42.55347,
      "longitude": -70.961754
    },
    "id": "20070",
    "name": "Michaud Mitsubishi",
    "telephone": "(978)774-4040",
    "url": "www.michaudmitsubishi.com"
  },
  {
    "address": {
      "addressCountry": "United States",
      "addressLocality": "Longwood",
      "addressRegion": "FL",
      "postalCode": "32750-4421",
      "streetAddress": "615 N. Highway 17 92"
    },
    "faxNumber": "(407)696-0443",
    "geo": {
      "latitude": 28.707481,
      "longitude": -81.32631
    },
    "id": "10308",
    "name": "Longwood Mitsubishi",
    "telephone": "(407)571-1234",
    "url": "www.longwoodmitsubishi.com"
  },
  {
    "address": {
      "addressCountry": "United States",
      "addressLocality": "Alexandria",
      "addressRegion": "LA",
      "postalCode": "71301-4026",
      "streetAddress": "1612 Macarthur Dr."
    },
    "faxNumber": "(318)443-8170",
    "geo": {
      "latitude": 31.282085,
      "longitude": -92.47363
    },
    "id": "19018",
    "name": "Walker Mitsubishi-La",
    "telephone": "(318)445-6421",
    "url": "www.walkerautomitsubishi.com"
  },
  {
    "address": {
      "addressCountry": "United States",
      "addressLocality": "Dallas",
      "addressRegion": "TX",
      "postalCode": "75224",
      "streetAddress": "3520 Marvin D. Love Freeway"
    },
    "faxNumber": "(214)372-7870",
    "geo": {
      "latitude": 32.700127,
      "longitude": -96.83655
    },
    "id": "44034",
    "name": "Don Herring Mitsubishi",
    "telephone": "(214)372-7850",
    "url": "www.donherring.com"
  },
  {
    "address": {
      "addressCountry": "United States",
      "addressLocality": "Wilkes-Barre",
      "addressRegion": "PA",
      "postalCode": "18702",
      "streetAddress": "150 Motorworld Drive"
    },
    "faxNumber": "(570)820-6999",
    "geo": {
      "latitude": 41.254143,
      "longitude": -75.837585
    },
    "id": "39109",
    "name": "Motorworld Mitsubishi",
    "telephone": "(570)829-3500",
    "url": "www.motorworldgroupmitsubishi.com/"
  },
  {
    "address": {
      "addressCountry": "United States",
      "addressLocality": "Cedar Rapids",
      "addressRegion": "IA",
      "postalCode": "52402-3142",
      "streetAddress": "4045 First Avenue S.E."
    },
    "faxNumber": "(319)364-6972",
    "geo": {
      "latitude": 42.020603,
      "longitude": -91.631355
    },
    "id": "13003",
    "name": "Zimmerman Mitsubishi",
    "telephone": "(319)364-0181",
    "url": null
  },
  {
    "address": {
      "addressCountry": "United States",
      "addressLocality": "Eau Claire",
      "addressRegion": "WI",
      "postalCode": "54701-9698",
      "streetAddress": "2809 Golf Road"
    },
    "faxNumber": "(715)833-1569",
    "geo": {
      "latitude": 44.771126,
      "longitude": -91.461395
    },
    "id": "49038",
    "name": "Prestige Mitsubishi-Wi",
    "telephone": "(715)833-0177",
    "url": "www.mitsubishiofeauclaire.com"
  },
  {
    "address": {
      "addressCountry": "United States",
      "addressLocality": "Albany",
      "addressRegion": "GA",
      "postalCode": "31707",
      "streetAddress": "1000 East Oglethorpe Blvd."
    },
    "faxNumber": "(229)888-4112",
    "geo": {
      "latitude": 31.572412,
      "longitude": -84.12777
    },
    "id": "11146",
    "name": "Albany Mitsubishi",
    "telephone": "(229)888-4101",
    "url": "www.mitsubishiofalbany.com"
  },
  {
    "address": {
      "addressCountry": "United States",
      "addressLocality": "Racine",
      "addressRegion": "WI",
      "postalCode": "53406",
      "streetAddress": "6107 Washington Avenue"
    },
    "faxNumber": "(262)886-8810",
    "geo": {
      "latitude": 42.719055,
      "longitude": -87.854454
    },
    "id": "49036",
    "name": "Porcaro Mitsubishi",
    "telephone": "(262)886-1400",
    "url": null
  },
  {
    "address": {
      "addressCountry": "United States",
      "addressLocality": "Farmington",
      "addressRegion": "NM",
      "postalCode": "87402",
      "streetAddress": "4004 E. Main Street"
    },
    "faxNumber": "(505)325-2353",
    "geo": {
      "latitude": 36.756233,
      "longitude": -108.15658
    },
    "id": "33034",
    "name": "Hi Country Mitsubishi",
    "telephone": "(505)327-3391",
    "url": "www.hicountrymitsubishi.com"
  },
  {
    "address": {
      "addressCountry": "United States",
      "addressLocality": "Clovis",
      "addressRegion": "NM",
      "postalCode": "88101",
      "streetAddress": "3300 Mabry Drive"
    },
    "faxNumber": "(575)935-9306",
    "geo": {
      "latitude": 34.395294,
      "longitude": -103.162415
    },
    "id": "33035",
    "name": "Hamilton Mitsubishi",
    "telephone": "(575)935-9305",
    "url": null
  },
  {
    "address": {
      "addressCountry": "United States",
      "addressLocality": "Fairfield",
      "addressRegion": "CT",
      "postalCode": "06825",
      "streetAddress": "421 Tunxis Hill Road"
    },
    "faxNumber": "(203)336-5808",
    "geo": {
      "latitude": 41.176624,
      "longitude": -73.23074
    },
    "id": "07055",
    "name": "Fairfield Mitsubishi",
    "telephone": "(203)384-0000",
    "url": "www.fairfieldmitsubishict.com"
  },
  {
    "address": {
      "addressCountry": "United States",
      "addressLocality": "Albuquerque",
      "addressRegion": "NM",
      "postalCode": "87110",
      "streetAddress": "7100 Lomas Blvd. Ne"
    },
    "faxNumber": "(505)883-2921",
    "geo": {
      "latitude": 35.087147,
      "longitude": -106.5677
    },
    "id": "33033",
    "name": "Mark Mitsubishi-Nm",
    "telephone": "(877)468-5035",
    "url": "www.casamitsubishi.com"
  },
  {
    "address": {
      "addressCountry": "United States",
      "addressLocality": "Cincinnati",
      "addressRegion": "OH",
      "postalCode": "45246",
      "streetAddress": "155 West Kemper Road"
    },
    "faxNumber": "(513)671-6608",
    "geo": {
      "latitude": 39.2876,
      "longitude": -84.47439
    },
    "id": "36069",
    "name": "Kerry Mitsubishi",
    "telephone": "(513)671-6400",
    "url": "www.kerrymitsubishi.com"
  },
  {
    "address": {
      "addressCountry": "United States",
      "addressLocality": "Groveport",
      "addressRegion": "OH",
      "postalCode": "43125-9332",
      "streetAddress": "4255 South Hamilton Road"
    },
    "faxNumber": "(614)836-6266",
    "geo": {
      "latitude": 39.88877,
      "longitude": -82.88318
    },
    "id": "36017",
    "name": "Ricart Mitsubishi",
    "telephone": "(614)836-5321",
    "url": "www.ricartmitsubishi.com"
  },
  {
    "address": {
      "addressCountry": "United States",
      "addressLocality": "Anderson",
      "addressRegion": "SC",
      "postalCode": "29621",
      "streetAddress": "4008 Clemson Blvd."
    },
    "faxNumber": "(864)622-1600",
    "geo": {
      "latitude": 34.557438,
      "longitude": -82.68728
    },
    "id": "41065",
    "name": "Electric City Mitsubishi",
    "telephone": "(864)622-1595",
    "url": "www.electriccitymitsubishi.com"
  },
  {
    "address": {
      "addressCountry": "United States",
      "addressLocality": "Midlothian",
      "addressRegion": "VA",
      "postalCode": "23113",
      "streetAddress": "11650 Midlothian Turnpike"
    },
    "faxNumber": "(804)379-0440",
    "geo": {
      "latitude": 37.505066,
      "longitude": -77.61401
    },
    "id": "46080",
    "name": "Hyman Bros. Mitsubishi",
    "telephone": "(804)379-3510",
    "url": "www.hymanbrosmitsubishi.com"
  },
  {
    "address": {
      "addressCountry": "United States",
      "addressLocality": "New Castle",
      "addressRegion": "DE",
      "postalCode": "19720",
      "streetAddress": "120 South Dupont Highway"
    },
    "faxNumber": "(302)322-9870",
    "geo": {
      "latitude": 39.66303,
      "longitude": -75.60665
    },
    "id": "09011",
    "name": "Hertrich Mitsubishi",
    "telephone": "(302)323-1100",
    "url": "www.hertrichmitsubishiofnewcastle.com"
  },
  {
    "address": {
      "addressCountry": "United States",
      "addressLocality": "State College",
      "addressRegion": "PA",
      "postalCode": "16801",
      "streetAddress": "273 Benner Pike"
    },
    "faxNumber": "(814)237-1992",
    "geo": {
      "latitude": 40.829426,
      "longitude": -77.80544
    },
    "id": "39120",
    "name": "Maggi Mitsubishi",
    "telephone": "(814)237-8895",
    "url": "www.jabcomaggi.com"
  },
  {
    "address": {
      "addressCountry": "United States",
      "addressLocality": "Chesapeake",
      "addressRegion": "VA",
      "postalCode": "23320",
      "streetAddress": "1601 South Military Highway"
    },
    "faxNumber": "(757)420-1598",
    "geo": {
      "latitude": 36.794792,
      "longitude": -76.23822
    },
    "id": "46073",
    "name": "Little Joe's Mitsubishi",
    "telephone": "(757)420-8214",
    "url": "www.littlejoesmitsubishi.com"
  },
  {
    "address": {
      "addressCountry": "United States",
      "addressLocality": "Livonia",
      "addressRegion": "MI",
      "postalCode": "48150",
      "streetAddress": "30777 Plymouth Road"
    },
    "faxNumber": "(734)838-1238",
    "geo": {
      "latitude": 42.36884,
      "longitude": -83.346886
    },
    "id": "23072",
    "name": "Livonia Mitsubishi",
    "telephone": "(734)525-5000",
    "url": "www.livoniamitsubishi.com"
  },
  {
    "address": {
      "addressCountry": "United States",
      "addressLocality": "Holland",
      "addressRegion": "MI",
      "postalCode": "49423",
      "streetAddress": "343 East 8Th Street"
    },
    "faxNumber": "(616)396-2596",
    "geo": {
      "latitude": 42.790405,
      "longitude": -86.09201
    },
    "id": "23071",
    "name": "Verhage Mitsubishi",
    "telephone": "(616)396-3589",
    "url": "www.verhagemitsubishi.com"
  },
  {
    "address": {
      "addressCountry": "United States",
      "addressLocality": "Plano",
      "addressRegion": "TX",
      "postalCode": "75093-0000",
      "streetAddress": "4225 West Plano Parkway"
    },
    "faxNumber": "(469)443-1804",
    "geo": {
      "latitude": 33.01521,
      "longitude": -96.77324
    },
    "id": "44158",
    "name": "Don Herring North Mitsubishi",
    "telephone": "(972)387-8600",
    "url": "www.donherring.com"
  },
  {
    "address": {
      "addressCountry": "United States",
      "addressLocality": "Green Bay",
      "addressRegion": "WI",
      "postalCode": "54302",
      "streetAddress": "801 Lime Kiln"
    },
    "faxNumber": "(920)468-1525",
    "geo": {
      "latitude": 44.489925,
      "longitude": -87.97796
    },
    "id": "49053",
    "name": "Cliff Wall Mitsubishi",
    "telephone": "(920)468-8898",
    "url": "www.cliffwallmitsubishi.com"
  },
  {
    "address": {
      "addressCountry": "United States",
      "addressLocality": "San Angelo",
      "addressRegion": "TX",
      "postalCode": "76903-8358",
      "streetAddress": "802 W. Avenue N"
    },
    "faxNumber": "(325)643-3072",
    "geo": {
      "latitude": 31.442947,
      "longitude": -100.44615
    },
    "id": "44114",
    "name": "Randall Mitsubishi",
    "telephone": "(325)655-5631",
    "url": "www.randallmitsubishi.com"
  },
  {
    "address": {
      "addressCountry": "United States",
      "addressLocality": "Houston",
      "addressRegion": "TX",
      "postalCode": "77065",
      "streetAddress": "19300 Northwest Freeway"
    },
    "faxNumber": "(281)897-8240",
    "geo": {
      "latitude": 29.908302,
      "longitude": -95.60931
    },
    "id": "44193",
    "name": "Hub Mitsubishi",
    "telephone": "(281)894-5200",
    "url": "www.houstonhubmitsubishi.com"
  },
  {
    "address": {
      "addressCountry": "United States",
      "addressLocality": "San Antonio",
      "addressRegion": "TX",
      "postalCode": "78238",
      "streetAddress": "7007 Nw Loop 410"
    },
    "faxNumber": "(210)509-3002",
    "geo": {
      "latitude": 29.457106,
      "longitude": -98.627144
    },
    "id": "44191",
    "name": "West Loop Mitsubishi-San Antonio",
    "telephone": "(210)509-3777",
    "url": "www.westloopmitsubishi.net"
  },
  {
    "address": {
      "addressCountry": "United States",
      "addressLocality": "Burlington",
      "addressRegion": "WA",
      "postalCode": "98233",
      "streetAddress": "1751 Bouslog Road"
    },
    "faxNumber": "(360)757-2278",
    "geo": {
      "latitude": 48.45295,
      "longitude": -122.34512
    },
    "id": "48060",
    "name": "Karmart Mitsubishi",
    "telephone": "(360)755-3712",
    "url": "www.karmartmitsubishi.com"
  },
  {
    "address": {
      "addressCountry": "United States",
      "addressLocality": "Seattle",
      "addressRegion": "WA",
      "postalCode": "98125",
      "streetAddress": "11577 Lake City Way Ne"
    },
    "faxNumber": "(206)361-5482",
    "geo": {
      "latitude": 47.713875,
      "longitude": -122.29846
    },
    "id": "48067",
    "name": "Pierre Mitsubishi-Seattle",
    "telephone": "(206)368-2332",
    "url": null
  },
  {
    "address": {
      "addressCountry": "United States",
      "addressLocality": "Costa Mesa",
      "addressRegion": "CA",
      "postalCode": "92626",
      "streetAddress": "2860 Harbor Boulevard"
    },
    "faxNumber": "(714)435-9208",
    "geo": {
      "latitude": 33.675888,
      "longitude": -117.9192
    },
    "id": "05410",
    "name": "South Coast Mitsubishi",
    "telephone": "(714)545-1700",
    "url": "www.southcoastmitsubishi.com"
  },
  {
    "address": {
      "addressCountry": "United States",
      "addressLocality": "Irving",
      "addressRegion": "TX",
      "postalCode": "75062",
      "streetAddress": "2901 W. Airport Freeway"
    },
    "faxNumber": "(972)785-3082",
    "geo": {
      "latitude": 32.83734,
      "longitude": -96.98626
    },
    "id": "44195",
    "name": "Don Herring Irving Mitsubishi",
    "telephone": "(972)785-3100",
    "url": "www.donherring.com"
  },
  {
    "address": {
      "addressCountry": "United States",
      "addressLocality": "Cerritos",
      "addressRegion": "CA",
      "postalCode": "90703",
      "streetAddress": "10944 South Street"
    },
    "faxNumber": "(562)494-8788",
    "geo": {
      "latitude": 33.85834,
      "longitude": -118.100586
    },
    "id": "05412",
    "name": "Cerritos Mitsubishi",
    "telephone": "(562)494-0187",
    "url": "www.cerritosmitsubishi.com"
  },
  {
    "address": {
      "addressCountry": "United States",
      "addressLocality": "South Portland",
      "addressRegion": "ME",
      "postalCode": "04106-3224",
      "streetAddress": "2123 Broadway"
    },
    "faxNumber": "(207)774-5556",
    "geo": {
      "latitude": 43.626423,
      "longitude": -70.3226
    },
    "id": "22003",
    "name": "Pape Mitsubishi",
    "telephone": "(207)774-5105",
    "url": "www.papemitsubishi.com"
  },
  {
    "address": {
      "addressCountry": "United States",
      "addressLocality": "Lawrence",
      "addressRegion": "KS",
      "postalCode": "66046-4157",
      "streetAddress": "1013 W. 23Rd Street"
    },
    "faxNumber": "(785)312-9463",
    "geo": {
      "latitude": 38.94276,
      "longitude": -95.24693
    },
    "id": "17011",
    "name": "Laird Noller Mitsubishi",
    "telephone": "(785)843-3500",
    "url": null
  },
  {
    "address": {
      "addressCountry": "United States",
      "addressLocality": "Hartford",
      "addressRegion": "CT",
      "postalCode": "06120",
      "streetAddress": "77 Leibert Road"
    },
    "faxNumber": "(860)728-4438",
    "geo": {
      "latitude": 41.783897,
      "longitude": -72.65812
    },
    "id": "07057",
    "name": "Hartford Mitsubishi",
    "telephone": "(860)527-9000",
    "url": "www.hartfordmitsubishi.com"
  },
  {
    "address": {
      "addressCountry": "United States",
      "addressLocality": "Olathe",
      "addressRegion": "KS",
      "postalCode": "66061",
      "streetAddress": "401 South Fir Street"
    },
    "faxNumber": "(913)393-2673",
    "geo": {
      "latitude": 38.87758,
      "longitude": -94.79374
    },
    "id": "17017",
    "name": "Olathe Mitsubishi",
    "telephone": "(913)648-8100",
    "url": "www.olathemitsubishi.com"
  },
  {
    "address": {
      "addressCountry": "United States",
      "addressLocality": "National City",
      "addressRegion": "CA",
      "postalCode": "91950",
      "streetAddress": "1935 National City Blvd."
    },
    "faxNumber": "(619)477-1517",
    "geo": {
      "latitude": 32.664486,
      "longitude": -117.10251
    },
    "id": "05314",
    "name": "Ball Mitsubishi",
    "telephone": "(619)474-6431",
    "url": "www.ballmitsubishi.com"
  },
  {
    "address": {
      "addressCountry": "United States",
      "addressLocality": "Bangor",
      "addressRegion": "ME",
      "postalCode": "04401-0000",
      "streetAddress": "162 Haskell Road"
    },
    "faxNumber": "(207)947-5341",
    "geo": {
      "latitude": 44.832443,
      "longitude": -68.738495
    },
    "id": "22006",
    "name": "Quirk Mitsubishi-Me",
    "telephone": "(207)945-9401",
    "url": "www.quirkmitsubishiofbangor.com"
  },
  {
    "address": {
      "addressCountry": "United States",
      "addressLocality": "Myrtle Beach",
      "addressRegion": "SC",
      "postalCode": "29579",
      "streetAddress": "431 Hospitality Lane"
    },
    "faxNumber": "(843)796-9158",
    "geo": {
      "latitude": 33.746468,
      "longitude": -78.95649
    },
    "id": "41066",
    "name": "Myrtle Beach Mitsubishi",
    "telephone": "(843)796-9155",
    "url": "www.mitsubishimyrtlebeach.com"
  },
  {
    "address": {
      "addressCountry": "United States",
      "addressLocality": "Birmingham",
      "addressRegion": "AL",
      "postalCode": "35215",
      "streetAddress": "1178 Center Point Parkway"
    },
    "faxNumber": "(205)856-3945",
    "geo": {
      "latitude": 33.615753,
      "longitude": -86.68578
    },
    "id": "02037",
    "name": "Serra Mitsubishi",
    "telephone": "(205)380-9285",
    "url": "www.serramitsubishi.com"
  },
  {
    "address": {
      "addressCountry": "United States",
      "addressLocality": "Huntsville",
      "addressRegion": "AL",
      "postalCode": "35816",
      "streetAddress": "4810 University Drive Nw"
    },
    "faxNumber": "(256)562-0146",
    "geo": {
      "latitude": 34.736996,
      "longitude": -86.65231
    },
    "id": "02034",
    "name": "Bill Penney Mitsubishi",
    "telephone": "(256)837-1111",
    "url": "www.billpenneymitsubishi.com"
  },
  {
    "address": {
      "addressCountry": "United States",
      "addressLocality": "Rapid City",
      "addressRegion": "SD",
      "postalCode": "57701",
      "streetAddress": "600 Cambell"
    },
    "faxNumber": "(605)342-9349",
    "geo": {
      "latitude": 44.076485,
      "longitude": -103.19168
    },
    "id": "42009",
    "name": "Liberty Mitsubishi",
    "telephone": "(605)721-6060",
    "url": "www.libertymitsubishi.com"
  },
  {
    "address": {
      "addressCountry": "United States",
      "addressLocality": "Des Moines",
      "addressRegion": "IA",
      "postalCode": "50310-0000",
      "streetAddress": "4410 Merle Hay Road"
    },
    "faxNumber": "(515)270-5838",
    "geo": {
      "latitude": 41.640495,
      "longitude": -93.697945
    },
    "id": "13011",
    "name": "Des Moines Mitsubishi",
    "telephone": "(515)270-8100",
    "url": "www.dsmmitsu.com"
  },
  {
    "address": {
      "addressCountry": "United States",
      "addressLocality": "Norman",
      "addressRegion": "OK",
      "postalCode": "73069",
      "streetAddress": "2505 W. Main Street"
    },
    "faxNumber": "(405)701-2717",
    "geo": {
      "latitude": 35.21853,
      "longitude": -97.47965
    },
    "id": "37038",
    "name": "Norman Mitsubishi",
    "telephone": "(405)701-2700",
    "url": "www.normanmitsubishi.com"
  },
  {
    "address": {
      "addressCountry": "United States",
      "addressLocality": "Urbana",
      "addressRegion": "IL",
      "postalCode": "61802-0000",
      "streetAddress": "1111 O'Brien Drive"
    },
    "faxNumber": "(217)398-1299",
    "geo": {
      "latitude": 40.139412,
      "longitude": -88.19637
    },
    "id": "15053",
    "name": "O'brien Mitsubishi-Urbana",
    "telephone": "(217)398-1222",
    "url": "www.obrienmitsubishiurbana.com"
  },
  {
    "address": {
      "addressCountry": "United States",
      "addressLocality": "Cedar Falls",
      "addressRegion": "IA",
      "postalCode": "50613",
      "streetAddress": "6823 University Avenue"
    },
    "faxNumber": "(319)277-0838",
    "geo": {
      "latitude": 42.513012,
      "longitude": -92.44041
    },
    "id": "13016",
    "name": "John Deery Mitsubishi",
    "telephone": "(319)277-6200",
    "url": "www.deerymitsubishi.com"
  },
  {
    "address": {
      "addressCountry": "United States",
      "addressLocality": "Medford",
      "addressRegion": "OR",
      "postalCode": "97504-4120",
      "streetAddress": "3103 Biddle Road"
    },
    "faxNumber": "(541)773-9434",
    "geo": {
      "latitude": 42.36171,
      "longitude": -122.87555
    },
    "id": "38006",
    "name": "Southern Oregon Mitsubishi",
    "telephone": "(541)245-2000",
    "url": "www.somitsubishi.com"
  },
  {
    "address": {
      "addressCountry": "United States",
      "addressLocality": "Dubuque",
      "addressRegion": "IA",
      "postalCode": "52003",
      "streetAddress": "4455 Dodge Street"
    },
    "faxNumber": "(563)588-9286",
    "geo": {
      "latitude": 42.48778,
      "longitude": -90.74212
    },
    "id": "13014",
    "name": "Riley Mitsubishi",
    "telephone": "(563)588-2326",
    "url": "www.rileymitsubishi.com"
  },
  {
    "address": {
      "addressCountry": "United States",
      "addressLocality": "Mission",
      "addressRegion": "TX",
      "postalCode": "78572-0000",
      "streetAddress": "2003 East Expressway 83"
    },
    "faxNumber": "(956)581-7962",
    "geo": {
      "latitude": 26.197025,
      "longitude": -98.29494
    },
    "id": "44044",
    "name": "Payne Mitsubishi",
    "telephone": "(956)584-6300",
    "url": "www.paynemissionmitsubishi.com"
  },
  {
    "address": {
      "addressCountry": "United States",
      "addressLocality": "Madison",
      "addressRegion": "TN",
      "postalCode": "37115",
      "streetAddress": "2467 Gallatin Road North"
    },
    "faxNumber": "(615)859-3257",
    "geo": {
      "latitude": 36.309376,
      "longitude": -86.67305
    },
    "id": "43060",
    "name": "Hallmark Mitsubishi",
    "telephone": "(615)859-3200",
    "url": "www.hallmarkmitsubishi.com"
  },
  {
    "address": {
      "addressCountry": "United States",
      "addressLocality": "Knoxville",
      "addressRegion": "TN",
      "postalCode": "37919",
      "streetAddress": "8585 Kingston Pike"
    },
    "faxNumber": "(865)539-9579",
    "geo": {
      "latitude": 35.920017,
      "longitude": -84.06823
    },
    "id": "43061",
    "name": "Ted Russell Mitsubishi",
    "telephone": "(865)691-7311",
    "url": "www.tedrussellmitsubishi.com"
  },
  {
    "address": {
      "addressCountry": "United States",
      "addressLocality": "Killeen",
      "addressRegion": "TX",
      "postalCode": "76543",
      "streetAddress": "3301 E. Central Texas Exprsway"
    },
    "faxNumber": "(254)699-8818",
    "geo": {
      "latitude": 31.084923,
      "longitude": -97.70674
    },
    "id": "44207",
    "name": "Automax Mitsubishi",
    "telephone": "(254)699-2629",
    "url": null
  },
  {
    "address": {
      "addressCountry": "United States",
      "addressLocality": "Lufkin",
      "addressRegion": "TX",
      "postalCode": "75901",
      "streetAddress": "800 N. Medford Drive"
    },
    "faxNumber": "(936)699-5219",
    "geo": {
      "latitude": 31.342863,
      "longitude": -94.691315
    },
    "id": "44206",
    "name": "Al Meyer Mitsubishi",
    "telephone": "(936)632-6611",
    "url": null
  },
  {
    "address": {
      "addressCountry": "United States",
      "addressLocality": "Greenville",
      "addressRegion": "TX",
      "postalCode": "75402",
      "streetAddress": "711 E. Joe Ramsey Blvd."
    },
    "faxNumber": "(903)454-7193",
    "geo": {
      "latitude": 33.113583,
      "longitude": -96.09427
    },
    "id": "44205",
    "name": "Greenville Mitsubishi-Tx",
    "telephone": "(903)454-6800",
    "url": "www.greenvillemitsubishi.com"
  },
  {
    "address": {
      "addressCountry": "United States",
      "addressLocality": "Las Vegas",
      "addressRegion": "NV",
      "postalCode": "89149",
      "streetAddress": "8555 West Centennial Parkway"
    },
    "faxNumber": "(702)946-6930",
    "geo": {
      "latitude": 36.27728,
      "longitude": -115.28156
    },
    "id": "34038",
    "name": "Jim Marsh Mitsubishi",
    "telephone": "(702)946-1000",
    "url": "www.jimmarshmitsubishi.com"
  },
  {
    "address": {
      "addressCountry": "United States",
      "addressLocality": "Sioux City",
      "addressRegion": "IA",
      "postalCode": "51101",
      "streetAddress": "2201 E. 6Th Street"
    },
    "faxNumber": "(712)258-5466",
    "geo": {
      "latitude": 42.4965,
      "longitude": -96.38117
    },
    "id": "13018",
    "name": "Woodhouse Mitsubishi-Sioux City",
    "telephone": "(712)277-3221",
    "url": "www.woodhousemitsubishi.com/"
  },
  {
    "address": {
      "addressCountry": "United States",
      "addressLocality": "Weatherford",
      "addressRegion": "TX",
      "postalCode": "76087",
      "streetAddress": "2951 Fort Worth Highway"
    },
    "faxNumber": "(817)565-1101",
    "geo": {
      "latitude": 32.75711,
      "longitude": -97.708145
    },
    "id": "44200",
    "name": "Southwest Mitsubishi",
    "telephone": "(817)565-1100",
    "url": "www.southwestmitsubishi.com"
  },
  {
    "address": {
      "addressCountry": "United States",
      "addressLocality": "Sarasota",
      "addressRegion": "FL",
      "postalCode": "34231",
      "streetAddress": "6826 S. Tamiami Trail"
    },
    "faxNumber": "(941)924-3726",
    "geo": {
      "latitude": 27.256721,
      "longitude": -82.519226
    },
    "id": "10323",
    "name": "Sarasota Mitsubishi",
    "telephone": "(941)922-0711",
    "url": "www.sarasotamitsubishicars.com"
  },
  {
    "address": {
      "addressCountry": "United States",
      "addressLocality": "Downingtown",
      "addressRegion": "PA",
      "postalCode": "19335-3357",
      "streetAddress": "1223 East Lancaster Avenue"
    },
    "faxNumber": "(610)873-5400",
    "geo": {
      "latitude": 40.020588,
      "longitude": -75.668655
    },
    "id": "39093",
    "name": "Jeff D'ambrosio Mitsubishi",
    "telephone": "(610)873-2400",
    "url": "www.gojeffmitsubishi.com"
  },
  {
    "address": {
      "addressCountry": "United States",
      "addressLocality": "Orange Park",
      "addressRegion": "FL",
      "postalCode": "32073",
      "streetAddress": "1481 Wells Road"
    },
    "faxNumber": "(904)621-0621",
    "geo": {
      "latitude": 30.18987,
      "longitude": -81.709694
    },
    "id": "10333",
    "name": "Orange Park Mitsubishi",
    "telephone": "(904)779-0708",
    "url": "www.mitsubishijax.com"
  },
  {
    "address": {
      "addressCountry": "United States",
      "addressLocality": "Waukesha",
      "addressRegion": "WI",
      "postalCode": "53186",
      "streetAddress": "W226S1700 Hwy 164"
    },
    "faxNumber": "(262)506-3155",
    "geo": {
      "latitude": 43.01222,
      "longitude": -88.200066
    },
    "id": "49046",
    "name": "Russ Darrow Mitsubishi",
    "telephone": "(262)506-3150",
    "url": "www.mitsubishiwaukesha.com"
  },
  {
    "address": {
      "addressCountry": "United States",
      "addressLocality": "Appleton",
      "addressRegion": "WI",
      "postalCode": "54913-0000",
      "streetAddress": "3023 Victory Lane"
    },
    "faxNumber": "(920)749-3252",
    "geo": {
      "latitude": 44.290867,
      "longitude": -88.470695
    },
    "id": "49047",
    "name": "Bergstrom Mitsubishi",
    "telephone": "(920)749-3232",
    "url": null
  },
  {
    "address": {
      "addressCountry": "United States",
      "addressLocality": "Abilene",
      "addressRegion": "TX",
      "postalCode": "79605-1309",
      "streetAddress": "3995 South First Street"
    },
    "faxNumber": "(325)692-6271",
    "geo": {
      "latitude": 32.451668,
      "longitude": -99.7753
    },
    "id": "44082",
    "name": "Arrow Mitsubishi",
    "telephone": "(325)692-5303",
    "url": "www.arrowmitsubishi.com"
  },
  {
    "address": {
      "addressCountry": "United States",
      "addressLocality": "Kansas City",
      "addressRegion": "MO",
      "postalCode": "64138",
      "streetAddress": "6300 E. 87Th Street"
    },
    "faxNumber": "(816)523-9271",
    "geo": {
      "latitude": 38.967323,
      "longitude": -94.516426
    },
    "id": "25053",
    "name": "Jeremy Franklin Mitsubishi",
    "telephone": "(816)523-6900",
    "url": "www.jeremyfranklin.com"
  },
  {
    "address": {
      "addressCountry": "United States",
      "addressLocality": "St. Joseph",
      "addressRegion": "MO",
      "postalCode": "64507",
      "streetAddress": "806 S. Belt Highway"
    },
    "faxNumber": "(816)390-8745",
    "geo": {
      "latitude": 39.759758,
      "longitude": -94.8037
    },
    "id": "25052",
    "name": "Anderson Mitsubishi-Mo",
    "telephone": "(816)233-2900",
    "url": "www.aagmitsubishi.com"
  },
  {
    "address": {
      "addressCountry": "United States",
      "addressLocality": "Fort Myers",
      "addressRegion": "FL",
      "postalCode": "33912",
      "streetAddress": "2850 Colonial Blvd."
    },
    "faxNumber": "(239)931-3343",
    "geo": {
      "latitude": 26.597221,
      "longitude": -81.85348
    },
    "id": "10263",
    "name": "O'brien Mitsubishi-Ft. Myers",
    "telephone": "(239)277-1222",
    "url": "www.obrienmitsubishi.net"
  },
  {
    "address": {
      "addressCountry": "United States",
      "addressLocality": "Columbia",
      "addressRegion": "MO",
      "postalCode": "65202",
      "streetAddress": "500 Vandiver Drive"
    },
    "faxNumber": "(573)499-1308",
    "geo": {
      "latitude": 38.97145,
      "longitude": -92.33014
    },
    "id": "25050",
    "name": "Joe Machens Mitsubishi",
    "telephone": "(573)875-5000",
    "url": "www.joemachensmitsubishi.com"
  },
  {
    "address": {
      "addressCountry": "United States",
      "addressLocality": "Gainesville",
      "addressRegion": "GA",
      "postalCode": "30504",
      "streetAddress": "2801 Browns Bridge Road"
    },
    "faxNumber": "(678)207-0009",
    "geo": {
      "latitude": 34.277412,
      "longitude": -83.871284
    },
    "id": "11137",
    "name": "Carriage Mitsubishi-Ga",
    "telephone": "(770)536-4434",
    "url": "www.carriagemitsubishi.com"
  },
  {
    "address": {
      "addressCountry": "United States",
      "addressLocality": "Morrow",
      "addressRegion": "GA",
      "postalCode": "30260-2907",
      "streetAddress": "7134 Jonesboro Rd."
    },
    "faxNumber": "(770)960-3993",
    "geo": {
      "latitude": 33.560658,
      "longitude": -84.345345
    },
    "id": "11147",
    "name": "Heritage Mitsubishi-Morrow",
    "telephone": "(770)960-0060",
    "url": "www.heritagemitsubishi.net"
  },
  {
    "address": {
      "addressCountry": "United States",
      "addressLocality": "Kennewick",
      "addressRegion": "WA",
      "postalCode": "99336",
      "streetAddress": "3020 W. Clearwater Avenue"
    },
    "faxNumber": "(509)783-9085",
    "geo": {
      "latitude": 46.212273,
      "longitude": -119.16238
    },
    "id": "48078",
    "name": "Leskovar Mitsubishi",
    "telephone": "(509)783-6141",
    "url": "www.leskovarmitsubishi.com"
  },
  {
    "address": {
      "addressCountry": "United States",
      "addressLocality": "Riverside",
      "addressRegion": "CA",
      "postalCode": "92504",
      "streetAddress": "8177 Indiana Avenue"
    },
    "faxNumber": "(951)343-0804",
    "geo": {
      "latitude": 33.92798,
      "longitude": -117.417145
    },
    "id": "05403",
    "name": "Riverside Mitsubishi-Ca",
    "telephone": "(951)509-1000",
    "url": "www.riversidemitsubishi.com"
  },
  {
    "address": {
      "addressCountry": "United States",
      "addressLocality": "Tacoma",
      "addressRegion": "WA",
      "postalCode": "98409",
      "streetAddress": "7629 S. Tacoma Way"
    },
    "faxNumber": "(253)671-6427",
    "geo": {
      "latitude": 47.187496,
      "longitude": -122.48369
    },
    "id": "48074",
    "name": "Larson Mitsubishi",
    "telephone": "(253)671-6522",
    "url": "www.larsonmitsubishi.com"
  },
  {
    "address": {
      "addressCountry": "United States",
      "addressLocality": "Everett",
      "addressRegion": "WA",
      "postalCode": "98204",
      "streetAddress": "12620 Hwy. 99"
    },
    "faxNumber": "(425)355-6096",
    "geo": {
      "latitude": 47.883682,
      "longitude": -122.26381
    },
    "id": "48076",
    "name": "Harris Mitsubishi-Wa",
    "telephone": "(425)290-5186",
    "url": "www.harrismitsubishinw.com"
  },
  {
    "address": {
      "addressCountry": "United States",
      "addressLocality": "Port Orchard",
      "addressRegion": "WA",
      "postalCode": "98367",
      "streetAddress": "3550 Sw State Highway 16"
    },
    "faxNumber": "(360)917-0092",
    "geo": {
      "latitude": 47.52488,
      "longitude": -122.696526
    },
    "id": "48077",
    "name": "Peninsula Mitsubishi",
    "telephone": "(360)917-0088",
    "url": "www.peninsulamitsubishi.com"
  },
  {
    "address": {
      "addressCountry": "United States",
      "addressLocality": "Skowhegan",
      "addressRegion": "ME",
      "postalCode": "04976",
      "streetAddress": "337 Madison Avenue"
    },
    "faxNumber": "(207)474-6333",
    "geo": {
      "latitude": 44.7842,
      "longitude": -69.72886
    },
    "id": "22016",
    "name": "Cold Brook Mitsubishi",
    "telephone": "(207)474-9881",
    "url": "www.coldbrookmitsubishi.com"
  },
  {
    "address": {
      "addressCountry": "United States",
      "addressLocality": "Renton",
      "addressRegion": "WA",
      "postalCode": "98057",
      "streetAddress": "3820 E. Valley Road"
    },
    "faxNumber": "(425)251-9672",
    "geo": {
      "latitude": 47.445118,
      "longitude": -122.21841
    },
    "id": "48071",
    "name": "Younker Mitsubishi",
    "telephone": "(425)251-8102",
    "url": "www.younkermitsubishi.com"
  },
  {
    "address": {
      "addressCountry": "United States",
      "addressLocality": "Augusta",
      "addressRegion": "ME",
      "postalCode": "04330",
      "streetAddress": "475 Western Avenue"
    },
    "faxNumber": "(207)623-2836",
    "geo": {
      "latitude": 44.320095,
      "longitude": -69.82351
    },
    "id": "22014",
    "name": "Charlie's Mitsubishi-Me",
    "telephone": "(207)622-7327",
    "url": "www.charliesmitsubishi.com"
  },
  {
    "address": {
      "addressCountry": "United States",
      "addressLocality": "Vancouver",
      "addressRegion": "WA",
      "postalCode": "98662",
      "streetAddress": "3608A Ne Auto Mall Drive"
    },
    "faxNumber": "(360)256-0455",
    "geo": {
      "latitude": 45.648182,
      "longitude": -122.59755
    },
    "id": "48073",
    "name": "Alan Webb Mitsubishi",
    "telephone": "(360)256-0506",
    "url": "www.alanwebbmitsubishi.com"
  },
  {
    "address": {
      "addressCountry": "United States",
      "addressLocality": "Brooklyn Center",
      "addressRegion": "MN",
      "postalCode": "55429-1243",
      "streetAddress": "7235 Brooklyn Blvd."
    },
    "faxNumber": "(763)566-6161",
    "geo": {
      "latitude": 45.0869,
      "longitude": -93.34402
    },
    "id": "24024",
    "name": "Luther Brookdale Mitsubishi",
    "telephone": "(763)566-5600",
    "url": "www.brookdale-mitsubishi.com"
  },
  {
    "address": {
      "addressCountry": "United States",
      "addressLocality": "Greenville",
      "addressRegion": "NC",
      "postalCode": "27858",
      "streetAddress": "203 East Greenville Blvd"
    },
    "faxNumber": "(252)756-8051",
    "geo": {
      "latitude": 35.57967,
      "longitude": -77.37971
    },
    "id": "28036",
    "name": "Joe Pecheles Mitsubishi",
    "telephone": "(252)756-1135",
    "url": "www.joepechelesmitsubishi.com"
  },
  {
    "address": {
      "addressCountry": "United States",
      "addressLocality": "Poway",
      "addressRegion": "CA",
      "postalCode": "92064",
      "streetAddress": "13910 Poway Road"
    },
    "faxNumber": "(858)486-4985",
    "geo": {
      "latitude": 32.956436,
      "longitude": -117.02994
    },
    "id": "05380",
    "name": "Poway Mitsubishi",
    "telephone": "(858)486-6560",
    "url": "www.powaymitsubishi.com"
  },
  {
    "address": {
      "addressCountry": "United States",
      "addressLocality": "Thornton",
      "addressRegion": "CO",
      "postalCode": "80234",
      "streetAddress": "2040 W. 104Th Ave."
    },
    "faxNumber": "(303)410-1018",
    "geo": {
      "latitude": 39.885105,
      "longitude": -105.012985
    },
    "id": "06033",
    "name": "Skyline Mitsubishi",
    "telephone": "(303)465-5512",
    "url": "www.skylinemitsubishi.com"
  },
  {
    "address": {
      "addressCountry": "United States",
      "addressLocality": "White Bear Lake",
      "addressRegion": "MN",
      "postalCode": "55110",
      "streetAddress": "3400 Highway 61 North"
    },
    "faxNumber": "(651)483-8649",
    "geo": {
      "latitude": 45.041252,
      "longitude": -93.04025
    },
    "id": "24029",
    "name": "White Bear Mitsubishi",
    "telephone": "(651)483-9106",
    "url": "www.whitebearmitsu.com"
  },
  {
    "address": {
      "addressCountry": "United States",
      "addressLocality": "Baltimore",
      "addressRegion": "MD",
      "postalCode": "21234-2730",
      "streetAddress": "1906 E. Joppa Road"
    },
    "faxNumber": "(410)661-1182",
    "geo": {
      "latitude": 39.400448,
      "longitude": -76.54967
    },
    "id": "21002",
    "name": "Jerry's Mitsubishi",
    "telephone": "(410)668-4200",
    "url": "www.jerrysmitsubishi.com"
  },
  {
    "address": {
      "addressCountry": "United States",
      "addressLocality": "Jackson",
      "addressRegion": "TN",
      "postalCode": "38305",
      "streetAddress": "1607 U.S. Highway 45 Bypass"
    },
    "faxNumber": "(731)664-3096",
    "geo": {
      "latitude": 35.650856,
      "longitude": -88.852425
    },
    "id": "43053",
    "name": "Alan Vines Mitsubishi",
    "telephone": "(731)664-8500",
    "url": "www.alanvinesmitsubishi.com"
  },
  {
    "address": {
      "addressCountry": "United States",
      "addressLocality": "Austin",
      "addressRegion": "TX",
      "postalCode": "78745",
      "streetAddress": "1120 Shelby Lane"
    },
    "faxNumber": "(512)912-2165",
    "geo": {
      "latitude": 30.210714,
      "longitude": -97.75751
    },
    "id": "44219",
    "name": "Roger Beasley Mitsubishi South",
    "telephone": "(512)949-5999",
    "url": "www.beasleymitsubishisouth.com"
  },
  {
    "address": {
      "addressCountry": "United States",
      "addressLocality": "San Rafael",
      "addressRegion": "CA",
      "postalCode": "94901",
      "streetAddress": "807 East Francisco Blvd."
    },
    "faxNumber": "(415)454-4378",
    "geo": {
      "latitude": 37.96276,
      "longitude": -122.50992
    },
    "id": "05390",
    "name": "San Rafael Mitsubishi",
    "telephone": "(415)454-7000",
    "url": "www.sanrafaelmitsubishi.com"
  },
  {
    "address": {
      "addressCountry": "United States",
      "addressLocality": "Victorville",
      "addressRegion": "CA",
      "postalCode": "92392",
      "streetAddress": "15529 Ramona Ave"
    },
    "faxNumber": "(760)241-5050",
    "geo": {
      "latitude": 34.509445,
      "longitude": -117.32511
    },
    "id": "05391",
    "name": "Victorville Mitsubishi",
    "telephone": "(760)955-2700",
    "url": "www.victorvillemitsubishi.com"
  },
  {
    "address": {
      "addressCountry": "United States",
      "addressLocality": "Miamisburg",
      "addressRegion": "OH",
      "postalCode": "45342-4403",
      "streetAddress": "8457 Springboro Pike"
    },
    "faxNumber": "(937)433-8851",
    "geo": {
      "latitude": 39.628128,
      "longitude": -84.226074
    },
    "id": "36048",
    "name": "Walker Mitsubishi-Oh",
    "telephone": "(937)433-4950",
    "url": "www.walkermitsubishi.com"
  },
  {
    "address": {
      "addressCountry": "United States",
      "addressLocality": "Henderson",
      "addressRegion": "NV",
      "postalCode": "89014-6700",
      "streetAddress": "260 N. Gibson"
    },
    "faxNumber": "(702)564-8349",
    "geo": {
      "latitude": 36.0472,
      "longitude": -115.02901
    },
    "id": "34032",
    "name": "Courtesy Mitsubishi-Nv",
    "telephone": "(702)567-8000",
    "url": "www.hendersonmitsubishi.com/"
  },
  {
    "address": {
      "addressCountry": "United States",
      "addressLocality": "La Grange",
      "addressRegion": "GA",
      "postalCode": "30241",
      "streetAddress": "1327 Lafayette Parkway"
    },
    "faxNumber": "(706)845-8511",
    "geo": {
      "latitude": 33.04096,
      "longitude": -84.9912
    },
    "id": "11124",
    "name": "Parkway Mitsubishi-Ga",
    "telephone": "(706)882-2990",
    "url": "www.parkwaymitsu.com"
  },
  {
    "address": {
      "addressCountry": "United States",
      "addressLocality": "Waco",
      "addressRegion": "TX",
      "postalCode": "76710",
      "streetAddress": "4717 W. Waco Drive"
    },
    "faxNumber": "(254)752-0171",
    "geo": {
      "latitude": 31.522139,
      "longitude": -97.177635
    },
    "id": "44210",
    "name": "Jubilee Mitsubishi",
    "telephone": "(254)752-2886",
    "url": "www.jubileemitsubishi.com"
  },
  {
    "address": {
      "addressCountry": "United States",
      "addressLocality": "Bronx",
      "addressRegion": "NY",
      "postalCode": "10467",
      "streetAddress": "3522 Webster Avenue"
    },
    "faxNumber": "(718)475-5376",
    "geo": {
      "latitude": 40.879745,
      "longitude": -73.871185
    },
    "id": "35138",
    "name": "Lasorsa Mitsubishi",
    "telephone": "(718)654-7200",
    "url": "www.lasorsamitsubishi.com"
  },
  {
    "address": {
      "addressCountry": "United States",
      "addressLocality": "San Antonio",
      "addressRegion": "TX",
      "postalCode": "78216",
      "streetAddress": "9800 San Pedro Avenue"
    },
    "faxNumber": "(210)967-2026",
    "geo": {
      "latitude": 29.530415,
      "longitude": -98.49691
    },
    "id": "44212",
    "name": "Mission Mitsubishi",
    "telephone": "(210)342-2886",
    "url": "www.missionmitsubishi.com"
  },
  {
    "address": {
      "addressCountry": "United States",
      "addressLocality": "Kansas City",
      "addressRegion": "MO",
      "postalCode": "64118-4506",
      "streetAddress": "101 North East Vivion Road"
    },
    "faxNumber": "(816)459-7138",
    "geo": {
      "latitude": 39.18117,
      "longitude": -94.57928
    },
    "id": "25032",
    "name": "Northtowne Mitsubishi",
    "telephone": "(816)453-3710",
    "url": "www.northtownemitsubishi.com"
  },
  {
    "address": {
      "addressCountry": "United States",
      "addressLocality": "Corpus Christi",
      "addressRegion": "TX",
      "postalCode": "78415",
      "streetAddress": "2440 South Padre Island Drive"
    },
    "faxNumber": "(361)852-1000",
    "geo": {
      "latitude": 27.734901,
      "longitude": -97.42527
    },
    "id": "44214",
    "name": "All Star Mitsubishi-Tx",
    "telephone": "(361)814-1000",
    "url": "www.allstarmitsubishi.net"
  },
  {
    "address": {
      "addressCountry": "United States",
      "addressLocality": "Arlington",
      "addressRegion": "TX",
      "postalCode": "76017",
      "streetAddress": "1500 Interstate Hwy 20 West"
    },
    "faxNumber": "(817)375-4590",
    "geo": {
      "latitude": 32.675518,
      "longitude": -97.130066
    },
    "id": "44215",
    "name": "Clay Cooley Mitsubishi Arlington",
    "telephone": "(817)465-1212",
    "url": "arlingtonmitsubishi.claycooley.com"
  },
  {
    "address": {
      "addressCountry": "United States",
      "addressLocality": "Houston",
      "addressRegion": "TX",
      "postalCode": "77094",
      "streetAddress": "17007 Katy Freeway"
    },
    "faxNumber": "(281)829-5422",
    "geo": {
      "latitude": 29.78456,
      "longitude": -95.6782
    },
    "id": "44217",
    "name": "Hub Mitsubishi Katy",
    "telephone": "(281)664-6260",
    "url": "www.katyhubmitsubishi.com"
  },
  {
    "address": {
      "addressCountry": "United States",
      "addressLocality": "Gainesville",
      "addressRegion": "FL",
      "postalCode": "32609",
      "streetAddress": "2110 N. Main Street"
    },
    "faxNumber": "(352)380-0806",
    "geo": {
      "latitude": 29.672241,
      "longitude": -82.32244
    },
    "id": "10332",
    "name": "Gainesville Mitsubishi",
    "telephone": "(352)642-1355",
    "url": "www.gainesvillemitsubishi.com"
  },
  {
    "address": {
      "addressCountry": "United States",
      "addressLocality": "Springfield",
      "addressRegion": "MO",
      "postalCode": "65807",
      "streetAddress": "3145 S. Campbell"
    },
    "faxNumber": "(417)877-9104",
    "geo": {
      "latitude": 37.157303,
      "longitude": -93.29553
    },
    "id": "25049",
    "name": "Springfield Mitsubishi Mo",
    "telephone": "(417)886-6000",
    "url": "www.springfieldmitsubishi.com"
  },
  {
    "address": {
      "addressCountry": "United States",
      "addressLocality": "Port Richey",
      "addressRegion": "FL",
      "postalCode": "34668",
      "streetAddress": "10821 U.S. Highway 19"
    },
    "faxNumber": "(727)226-1055",
    "geo": {
      "latitude": 28.314241,
      "longitude": -82.69944
    },
    "id": "10331",
    "name": "Port Richey Mitsubishi",
    "telephone": "(727)245-1100",
    "url": "www.portricheymitsubishi.com"
  },
  {
    "address": {
      "addressCountry": "United States",
      "addressLocality": "New Britain",
      "addressRegion": "CT",
      "postalCode": "06051-4005",
      "streetAddress": "25 Veterans Drive"
    },
    "faxNumber": "(860)826-2039",
    "geo": {
      "latitude": 41.64965,
      "longitude": -72.77117
    },
    "id": "07035",
    "name": "Schaller Mitsubishi",
    "telephone": "(860)826-2066",
    "url": "www.schallermitsubishi.com"
  },
  {
    "address": {
      "addressCountry": "United States",
      "addressLocality": "Cicero",
      "addressRegion": "NY",
      "postalCode": "13039-0000",
      "streetAddress": "5885 E. Circle Drive"
    },
    "faxNumber": "(315)453-9904",
    "geo": {
      "latitude": 43.147594,
      "longitude": -76.116325
    },
    "id": "35029",
    "name": "Burdick Mitsubishi",
    "telephone": "(315)453-9901",
    "url": "mitsubishi.driversvillage.com"
  },
  {
    "address": {
      "addressCountry": "United States",
      "addressLocality": "Charleston",
      "addressRegion": "SC",
      "postalCode": "29414",
      "streetAddress": "2250 Savannah Highway"
    },
    "faxNumber": "(843)769-2681",
    "geo": {
      "latitude": 32.791367,
      "longitude": -80.03926
    },
    "id": "41060",
    "name": "Hoover Mitsubishi Charleston",
    "telephone": "(843)763-0040",
    "url": "www.hoovermitsubishi.com"
  },
  {
    "address": {
      "addressCountry": "United States",
      "addressLocality": "Nashua",
      "addressRegion": "NH",
      "postalCode": "03060-5236",
      "streetAddress": "5 Rockne Drive"
    },
    "faxNumber": "(603)891-3512",
    "geo": {
      "latitude": 42.727135,
      "longitude": -71.44656
    },
    "id": "31007",
    "name": "Nashua Mitsubishi",
    "telephone": "(603)888-8080",
    "url": "www.nashuamitsubishi.com"
  },
  {
    "address": {
      "addressCountry": "United States",
      "addressLocality": "Ft. Walton Beach",
      "addressRegion": "FL",
      "postalCode": "32547",
      "streetAddress": "350 Beal Parkway"
    },
    "faxNumber": "(850)863-9911",
    "geo": {
      "latitude": 30.427464,
      "longitude": -86.63637
    },
    "id": "10339",
    "name": "Ft. Walton Mitsubishi",
    "telephone": "(850)863-9900",
    "url": "www.fwbmitsubishi.com"
  },
  {
    "address": {
      "addressCountry": "United States",
      "addressLocality": "Huntington",
      "addressRegion": "WV",
      "postalCode": "25702-2023",
      "streetAddress": "5200 Route 60 East"
    },
    "faxNumber": "(304)736-4901",
    "geo": {
      "latitude": 38.41253,
      "longitude": -82.3422
    },
    "id": "50002",
    "name": "Moses Mitsubishi",
    "telephone": "(304)736-5291",
    "url": "www.mosesmitsubishi.com"
  },
  {
    "address": {
      "addressCountry": "United States",
      "addressLocality": "Tampa",
      "addressRegion": "FL",
      "postalCode": "33614",
      "streetAddress": "4636 N. Dale Mabry Highway"
    },
    "faxNumber": "(813)397-5205",
    "geo": {
      "latitude": 27.985748,
      "longitude": -82.50529
    },
    "id": "10337",
    "name": "Precision Mitsubishi",
    "telephone": "(813)397-5200",
    "url": "www.precisionmitsubishi.com"
  },
  {
    "address": {
      "addressCountry": "United States",
      "addressLocality": "Huntington Beach",
      "addressRegion": "CA",
      "postalCode": "92647",
      "streetAddress": "16751 Beach Blvd."
    },
    "faxNumber": "(714)500-1232",
    "geo": {
      "latitude": 33.719757,
      "longitude": -117.98926
    },
    "id": "05432",
    "name": "Huntington Beach Mitsubishi",
    "telephone": "(714)375-9493",
    "url": "www.hbmitsu.com"
  },
  {
    "address": {
      "addressCountry": "United States",
      "addressLocality": "Phoenix",
      "addressRegion": "AZ",
      "postalCode": "85022",
      "streetAddress": "1901 E. Bell Road"
    },
    "faxNumber": "(623)934-1113",
    "geo": {
      "latitude": 33.640354,
      "longitude": -112.04201
    },
    "id": "04047",
    "name": "Mark Mitsubishi-Az",
    "telephone": "(602)283-5100",
    "url": "www.markmitsubishiphoenix.com"
  },
  {
    "address": {
      "addressCountry": "United States",
      "addressLocality": "Parkersburg",
      "addressRegion": "WV",
      "postalCode": "26101-5060",
      "streetAddress": "1429 Seventh Street"
    },
    "faxNumber": "(304)485-8197",
    "geo": {
      "latitude": 39.264885,
      "longitude": -81.53762
    },
    "id": "50003",
    "name": "Mcclinton Mitsubishi",
    "telephone": "(304)422-6501",
    "url": "www.mcclintonmitsu.com"
  },
  {
    "address": {
      "addressCountry": "United States",
      "addressLocality": "Watertown",
      "addressRegion": "CT",
      "postalCode": "06795",
      "streetAddress": "702-724 Straits Turnpike"
    },
    "faxNumber": "(203)774-0366",
    "geo": {
      "latitude": 41.572544,
      "longitude": -73.099434
    },
    "id": "07059",
    "name": "Barberino Mitsubishi",
    "telephone": "(860)631-7111",
    "url": "www.barberinomitsubishi.com"
  },
  {
    "address": {
      "addressCountry": "United States",
      "addressLocality": "Middleburg Heights",
      "addressRegion": "OH",
      "postalCode": "44130",
      "streetAddress": "7629 Pearl Road"
    },
    "faxNumber": "(440)243-8576",
    "geo": {
      "latitude": 41.3581,
      "longitude": -81.81668
    },
    "id": "36075",
    "name": "Sunnyside Mitsubishi",
    "telephone": "(440)243-7711",
    "url": "www.sunnysidemitsubishi.com"
  },
  {
    "address": {
      "addressCountry": "United States",
      "addressLocality": "Chattanooga",
      "addressRegion": "TN",
      "postalCode": "37402",
      "streetAddress": "900 Riverfront Parkway"
    },
    "faxNumber": "(423)265-6938",
    "geo": {
      "latitude": 35.04857,
      "longitude": -85.32185
    },
    "id": "43059",
    "name": "Kelly Mitsubishi-Tn",
    "telephone": "(423)490-0181",
    "url": "www.kelly-mitsubishi.com"
  },
  {
    "address": {
      "addressCountry": "United States",
      "addressLocality": "Auburn",
      "addressRegion": "WA",
      "postalCode": "98002-1804",
      "streetAddress": "3317 Auburn Way North"
    },
    "faxNumber": "(253)939-1360",
    "geo": {
      "latitude": 47.336933,
      "longitude": -122.22237
    },
    "id": "48001",
    "name": "Auburn Valley Mitsubishi",
    "telephone": "(866)289-3095",
    "url": "www.auburnvalleymitsubishi.com"
  },
  {
    "address": {
      "addressCountry": "United States",
      "addressLocality": "Jacksonville",
      "addressRegion": "FL",
      "postalCode": "32225",
      "streetAddress": "10575 Atlantic Boulevard"
    },
    "faxNumber": "(904)620-8035",
    "geo": {
      "latitude": 30.32428,
      "longitude": -81.525635
    },
    "id": "10034",
    "name": "City Mitsubishi-Fl",
    "telephone": "(904)565-2489",
    "url": "www.citymitsubishi.com"
  },
  {
    "address": {
      "addressCountry": "United States",
      "addressLocality": "Southfield",
      "addressRegion": "MI",
      "postalCode": "48034-1341",
      "streetAddress": "29310 Telegraph Road"
    },
    "faxNumber": "(248)355-7654",
    "geo": {
      "latitude": 42.504223,
      "longitude": -83.28505
    },
    "id": "23008",
    "name": "Moran Mitsubishi",
    "telephone": "(248)353-0910",
    "url": "www.moranmitsubishi.com"
  },
  {
    "address": {
      "addressCountry": "United States",
      "addressLocality": "Clifton Park",
      "addressRegion": "NY",
      "postalCode": "12065",
      "streetAddress": "1658 Route 9"
    },
    "faxNumber": "(518)373-9345",
    "geo": {
      "latitude": 42.858635,
      "longitude": -73.76269
    },
    "id": "35141",
    "name": "Tony Mangino Mitsubishi",
    "telephone": "(518)373-4100",
    "url": "www.tonymangino.com"
  },
  {
    "address": {
      "addressCountry": "United States",
      "addressLocality": "Wichita",
      "addressRegion": "KS",
      "postalCode": "67207-3010",
      "streetAddress": "6601 E. Kellogg"
    },
    "faxNumber": "(316)652-2117",
    "geo": {
      "latitude": 37.67912,
      "longitude": -97.26017
    },
    "id": "17003",
    "name": "Steven Mitsubishi",
    "telephone": "(316)652-2155",
    "url": "www.stevenmitsubishi.com"
  },
  {
    "address": {
      "addressCountry": "United States",
      "addressLocality": "York",
      "addressRegion": "PA",
      "postalCode": "17404-2204",
      "streetAddress": "1301 Roosevelt Avenue"
    },
    "faxNumber": "(717)854-4564",
    "geo": {
      "latitude": 39.97719,
      "longitude": -76.756714
    },
    "id": "39037",
    "name": "York Mitsubishi",
    "telephone": "(717)846-2222",
    "url": "www.yorkmitsubishi.com"
  },
  {
    "address": {
      "addressCountry": "United States",
      "addressLocality": "St. Cloud",
      "addressRegion": "MN",
      "postalCode": "56301",
      "streetAddress": "3605 W. St. Germain Street"
    },
    "faxNumber": "(320)654-0076",
    "geo": {
      "latitude": 45.53956,
      "longitude": -94.20218
    },
    "id": "24033",
    "name": "Don Robinson Mitsubishi",
    "telephone": "(320)654-1310",
    "url": "www.donrobinsonmotors.com"
  },
  {
    "address": {
      "addressCountry": "United States",
      "addressLocality": "Erie",
      "addressRegion": "PA",
      "postalCode": "16509",
      "streetAddress": "6969 Edinboro Road"
    },
    "faxNumber": "(814)864-3282",
    "geo": {
      "latitude": 42.054836,
      "longitude": -80.10585
    },
    "id": "39098",
    "name": "Interstate Mitsubishi",
    "telephone": "(814)866-7222",
    "url": "www.interstatemitsubishi.com"
  },
  {
    "address": {
      "addressCountry": "United States",
      "addressLocality": "Richfield",
      "addressRegion": "MN",
      "postalCode": "55423",
      "streetAddress": "401 W. 77Th Street"
    },
    "faxNumber": "(952)224-5306",
    "geo": {
      "latitude": 44.8637,
      "longitude": -93.2855
    },
    "id": "24031",
    "name": "Richfield Bloomington Mitsubishi",
    "telephone": "(952)567-7200",
    "url": "www.richfieldbloomingtonmitsubishi.com"
  },
  {
    "address": {
      "addressCountry": "United States",
      "addressLocality": "Fayetteville",
      "addressRegion": "NC",
      "postalCode": "28314",
      "streetAddress": "2012 Skibo Road"
    },
    "faxNumber": "(910)864-0223",
    "geo": {
      "latitude": 35.05811,
      "longitude": -78.97119
    },
    "id": "28007",
    "name": "Leith Mitsubishi-Fayetteville",
    "telephone": "(910)864-1449",
    "url": "www.mitsubishifayetteville.com"
  },
  {
    "address": {
      "addressCountry": "United States",
      "addressLocality": "Raleigh",
      "addressRegion": "NC",
      "postalCode": "27616-0000",
      "streetAddress": "5401 Capital Boulevard"
    },
    "faxNumber": "(919)872-9728",
    "geo": {
      "latitude": 35.859333,
      "longitude": -78.58164
    },
    "id": "28006",
    "name": "Leith Mitsubishi-Raleigh Nc",
    "telephone": "(919)872-1011",
    "url": "www.leithmitsubishi.com"
  },
  {
    "address": {
      "addressCountry": "United States",
      "addressLocality": "Eynon",
      "addressRegion": "PA",
      "postalCode": "18403",
      "streetAddress": "Rt 6, Scranton-Carbondale Hwy."
    },
    "faxNumber": "(570)876-6012",
    "geo": {
      "latitude": 41.481808,
      "longitude": -75.61578
    },
    "id": "39094",
    "name": "Tony Domiano Mitsubishi",
    "telephone": "(570)876-6000",
    "url": "www.tonydomianomitsubishi.com"
  },
  {
    "address": {
      "addressCountry": "United States",
      "addressLocality": "Bixby",
      "addressRegion": "OK",
      "postalCode": "74008",
      "streetAddress": "15309 S Memorial Drive"
    },
    "faxNumber": "(918)943-3256",
    "geo": {
      "latitude": 35.9406,
      "longitude": -95.88664
    },
    "id": "37039",
    "name": "Green Country Mitsubishi",
    "telephone": "(918)364-7283",
    "url": "www.gcmitsubishi.com"
  },
  {
    "address": {
      "addressCountry": "United States",
      "addressLocality": "Mc Henry",
      "addressRegion": "IL",
      "postalCode": "60050",
      "streetAddress": "1107 South Rt. 31"
    },
    "faxNumber": "(815)385-0849",
    "geo": {
      "latitude": 42.31375,
      "longitude": -88.27759
    },
    "id": "15101",
    "name": "Gary Lang Mitsubishi",
    "telephone": "(815)385-2100",
    "url": "www.garylangmitsubishi.com"
  },
  {
    "address": {
      "addressCountry": "United States",
      "addressLocality": "Covington",
      "addressRegion": "LA",
      "postalCode": "70433",
      "streetAddress": "1801 N. Highway 190"
    },
    "faxNumber": "(985)892-0509",
    "geo": {
      "latitude": 30.456488,
      "longitude": -90.08241
    },
    "id": "19042",
    "name": "Rainbow Mitsubishi North",
    "telephone": "(985)809-0056",
    "url": null
  },
  {
    "address": {
      "addressCountry": "United States",
      "addressLocality": "Baton Rouge",
      "addressRegion": "LA",
      "postalCode": "70806",
      "streetAddress": "4917 Florida Blvd"
    },
    "faxNumber": "(225)923-6304",
    "geo": {
      "latitude": 30.378431,
      "longitude": -91.05911
    },
    "id": "19041",
    "name": "Gerry Lane Mitsubishi",
    "telephone": "(225)923-6300",
    "url": "www.gerrylanemitsubishi.com"
  },
  {
    "address": {
      "addressCountry": "United States",
      "addressLocality": "Reading",
      "addressRegion": "PA",
      "postalCode": "19605-1724",
      "streetAddress": "3814 Pottsville Pike"
    },
    "faxNumber": "(610)921-1968",
    "geo": {
      "latitude": 40.393154,
      "longitude": -75.93539
    },
    "id": "39091",
    "name": "Tom Masano Mitsubishi",
    "telephone": "(610)921-1500",
    "url": "www.tommasanomitsubishi.com"
  },
  {
    "address": {
      "addressCountry": "United States",
      "addressLocality": "Benton Harbor",
      "addressRegion": "MI",
      "postalCode": "49022",
      "streetAddress": "680 E. Napier Avenue"
    },
    "faxNumber": "(269)926-4836",
    "geo": {
      "latitude": 42.087128,
      "longitude": -86.44215
    },
    "id": "23066",
    "name": "Signature Mitsubishi",
    "telephone": "(269)926-0031",
    "url": "www.signaturemitsubishi.com"
  },
  {
    "address": {
      "addressCountry": "United States",
      "addressLocality": "Kingsport",
      "addressRegion": "TN",
      "postalCode": "37660",
      "streetAddress": "2733 East Stone Drive"
    },
    "faxNumber": "(423)288-2657",
    "geo": {
      "latitude": 36.552143,
      "longitude": -82.488594
    },
    "id": "43048",
    "name": "Wallace Mitsubishi-Kingsport",
    "telephone": "(423)288-5500",
    "url": "www.wallacemitsubishicars.com"
  },
  {
    "address": {
      "addressCountry": "United States",
      "addressLocality": "Bloomington",
      "addressRegion": "IN",
      "postalCode": "47401-6592",
      "streetAddress": "2200 South Walnut"
    },
    "faxNumber": "(812)331-2277",
    "geo": {
      "latitude": 39.140278,
      "longitude": -86.530815
    },
    "id": "16018",
    "name": "University Mitsubishi-In",
    "telephone": "(812)331-2250",
    "url": null
  },
  {
    "address": {
      "addressCountry": "United States",
      "addressLocality": "Mentor",
      "addressRegion": "OH",
      "postalCode": "44060-5818",
      "streetAddress": "8505 Mentor Avenue"
    },
    "faxNumber": "(440)255-3979",
    "geo": {
      "latitude": 41.66749,
      "longitude": -81.33635
    },
    "id": "36033",
    "name": "Mentor Mitsubishi",
    "telephone": "(440)534-5000",
    "url": "www.mentormitsubishi.com"
  },
  {
    "address": {
      "addressCountry": "United States",
      "addressLocality": "Cuyahoga Falls",
      "addressRegion": "OH",
      "postalCode": "44221-4923",
      "streetAddress": "1260 Main Street"
    },
    "faxNumber": "(330)923-1301",
    "geo": {
      "latitude": 41.120922,
      "longitude": -81.48423
    },
    "id": "36032",
    "name": "Ron Marhofer Mitsubishi",
    "telephone": "(330)929-7000",
    "url": "www.akronmitsubishi.com"
  },
  {
    "address": {
      "addressCountry": "United States",
      "addressLocality": "Plattsburgh",
      "addressRegion": "NY",
      "postalCode": "12901",
      "streetAddress": "7 Della Drive"
    },
    "faxNumber": "(518)324-3319",
    "geo": {
      "latitude": 44.696117,
      "longitude": -73.51623
    },
    "id": "35181",
    "name": "Della Mitsubishi",
    "telephone": "(518)324-3323",
    "url": "www.dellamitsu.com"
  },
  {
    "address": {
      "addressCountry": "United States",
      "addressLocality": "Sheffield Village",
      "addressRegion": "OH",
      "postalCode": "44054-0000",
      "streetAddress": "4840 Transportation Drive"
    },
    "faxNumber": "(440)934-9310",
    "geo": {
      "latitude": 41.42725,
      "longitude": -82.084
    },
    "id": "36034",
    "name": "Spitzer Mitsubishi-Sheffield",
    "telephone": "(440)385-9000",
    "url": "www.spitzersheffield.com"
  },
  {
    "address": {
      "addressCountry": "United States",
      "addressLocality": "Hickory",
      "addressRegion": "NC",
      "postalCode": "28602",
      "streetAddress": "1775 Catawba Valley Blvd., Se"
    },
    "faxNumber": "(704)566-4298",
    "geo": {
      "latitude": 35.703747,
      "longitude": -81.31164
    },
    "id": "28089",
    "name": "Hickory Mitsubishi",
    "telephone": "(828)304-5500",
    "url": "www.hickorymitsubishi.com"
  },
  {
    "address": {
      "addressCountry": "United States",
      "addressLocality": "Wilmington",
      "addressRegion": "NC",
      "postalCode": "28405",
      "streetAddress": "6220 Market Street"
    },
    "faxNumber": "(910)350-1442",
    "geo": {
      "latitude": 34.25367,
      "longitude": -77.84866
    },
    "id": "28088",
    "name": "D & E Mitsubishi",
    "telephone": "(910)799-4210",
    "url": "www.demitsubishi.com"
  },
  {
    "address": {
      "addressCountry": "United States",
      "addressLocality": "Elkhorn",
      "addressRegion": "NE",
      "postalCode": "68022",
      "streetAddress": "18201 Burt Street"
    },
    "faxNumber": "(402)315-9418",
    "geo": {
      "latitude": 41.26452,
      "longitude": -96.19994
    },
    "id": "30015",
    "name": "Omaha Mitsubishi",
    "telephone": "(402)738-3800",
    "url": "www.omahamitsubishi.com"
  },
  {
    "address": {
      "addressCountry": "United States",
      "addressLocality": "Lincoln",
      "addressRegion": "NE",
      "postalCode": "68504",
      "streetAddress": "3330 Superior Street"
    },
    "faxNumber": "(402)435-1390",
    "geo": {
      "latitude": 40.85741,
      "longitude": -96.66948
    },
    "id": "30014",
    "name": "Lincoln Mitsubishi",
    "telephone": "(402)435-3000",
    "url": "www.lincolnmitsubishi.net"
  },
  {
    "address": {
      "addressCountry": "United States",
      "addressLocality": "Elmira",
      "addressRegion": "NY",
      "postalCode": "14903",
      "streetAddress": "784 Country Route 64"
    },
    "faxNumber": "(607)562-8586",
    "geo": {
      "latitude": 42.15234,
      "longitude": -76.88627
    },
    "id": "35182",
    "name": "Simmons Rockwell Mitsubishi",
    "telephone": "(607)796-5555",
    "url": null
  },
  {
    "address": {
      "addressCountry": "United States",
      "addressLocality": "Council Bluffs",
      "addressRegion": "IA",
      "postalCode": "51501",
      "streetAddress": "1011 34Th Avenue"
    },
    "faxNumber": "(712)366-7987",
    "geo": {
      "latitude": 41.225494,
      "longitude": -95.85899
    },
    "id": "13017",
    "name": "Edwards Mitsubishi",
    "telephone": "(712)366-9411",
    "url": "www.edwardsmitsubishi.com/"
  },
  {
    "address": {
      "addressCountry": "United States",
      "addressLocality": "Concord",
      "addressRegion": "NH",
      "postalCode": "03301",
      "streetAddress": "95 Manchester Street"
    },
    "faxNumber": "(603)225-3467",
    "geo": {
      "latitude": 43.190166,
      "longitude": -71.50954
    },
    "id": "31016",
    "name": "Lovering Mitsubishi",
    "telephone": "(603)225-6681",
    "url": "www.loveringmitsubishi.com"
  },
  {
    "address": {
      "addressCountry": "United States",
      "addressLocality": "Rockford",
      "addressRegion": "IL",
      "postalCode": "61107-0000",
      "streetAddress": "204 North Alpine Road"
    },
    "faxNumber": "(815)229-3391",
    "geo": {
      "latitude": 42.26544,
      "longitude": -89.02903
    },
    "id": "15084",
    "name": "Anderson Mitsubishi-Il",
    "telephone": "(815)397-1200",
    "url": null
  },
  {
    "address": {
      "addressCountry": "United States",
      "addressLocality": "Keene",
      "addressRegion": "NH",
      "postalCode": "03431-3912",
      "streetAddress": "440 Winchester Street"
    },
    "faxNumber": "(603)357-3799",
    "geo": {
      "latitude": 42.91822,
      "longitude": -72.292656
    },
    "id": "31012",
    "name": "Keene Mitsubishi",
    "telephone": "(603)352-7750",
    "url": "www.keenemitsu.com"
  },
  {
    "address": {
      "addressCountry": "United States",
      "addressLocality": "Decatur",
      "addressRegion": "IL",
      "postalCode": "62521-0000",
      "streetAddress": "3855 E. Boyd Road"
    },
    "faxNumber": "(217)876-3801",
    "geo": {
      "latitude": 39.90726,
      "longitude": -88.89626
    },
    "id": "15082",
    "name": "Bob Brady Mitsubishi",
    "telephone": "(217)876-3800",
    "url": "www.bobbradymitsubishi.com"
  },
  {
    "address": {
      "addressCountry": "United States",
      "addressLocality": "Houston",
      "addressRegion": "TX",
      "postalCode": "77017",
      "streetAddress": "7200 Gulf Freeway"
    },
    "faxNumber": "(713)371-4445",
    "geo": {
      "latitude": 29.69627,
      "longitude": -95.289314
    },
    "id": "44002",
    "name": "Autonation Mitsubishi",
    "telephone": "(713)371-4444",
    "url": "www.autonationmitsubishi.com"
  },
  {
    "address": {
      "addressCountry": "United States",
      "addressLocality": "Mesa",
      "addressRegion": "AZ",
      "postalCode": "85206",
      "streetAddress": "6222 E. Autopark Drive"
    },
    "faxNumber": "(480)218-2003",
    "geo": {
      "latitude": 33.38865,
      "longitude": -111.69614
    },
    "id": "04057",
    "name": "Big Two Mitsubishi",
    "telephone": "(480)218-2000",
    "url": "www.bigtwomitsubishi.com"
  },
  {
    "address": {
      "addressCountry": "United States",
      "addressLocality": "San Jose",
      "addressRegion": "CA",
      "postalCode": "95136",
      "streetAddress": "750 W. Capitol Expressway"
    },
    "faxNumber": "(408)264-9988",
    "geo": {
      "latitude": 37.274902,
      "longitude": -121.86764
    },
    "id": "05346",
    "name": "Capitol Mitsubishi",
    "telephone": "(408)264-9999",
    "url": "www.capitolmitsubishi.com/"
  },
  {
    "address": {
      "addressCountry": "United States",
      "addressLocality": "St. Johnsbury",
      "addressRegion": "VT",
      "postalCode": "05819",
      "streetAddress": "36 Memorial Drive"
    },
    "faxNumber": "(802)748-5725",
    "geo": {
      "latitude": 44.433388,
      "longitude": -72.01695
    },
    "id": "47008",
    "name": "Quality Mitsubishi-Vt",
    "telephone": "(802)748-2209",
    "url": "www.qualitymitsubishivt.com"
  },
  {
    "address": {
      "addressCountry": "United States",
      "addressLocality": "Saint Peters",
      "addressRegion": "MO",
      "postalCode": "63376",
      "streetAddress": "4440 N. Service Road"
    },
    "faxNumber": "(636)441-3432",
    "geo": {
      "latitude": 38.798515,
      "longitude": -90.584564
    },
    "id": "25038",
    "name": "Lou Fusz Mitsubishi-St. Peters",
    "telephone": "(636)928-2345",
    "url": "mitsubishistpeters.fusz.com"
  },
  {
    "address": {
      "addressCountry": "United States",
      "addressLocality": "Scottsdale",
      "addressRegion": "AZ",
      "postalCode": "85257-0000",
      "streetAddress": "6910 E. Mcdowell Road"
    },
    "faxNumber": "(480)429-5858",
    "geo": {
      "latitude": 33.46574,
      "longitude": -111.93163
    },
    "id": "04051",
    "name": "Mark Mitsubishi-Scottsdale",
    "telephone": "(480)425-5300",
    "url": "www.markcars.com"
  },
  {
    "address": {
      "addressCountry": "United States",
      "addressLocality": "Tampa",
      "addressRegion": "FL",
      "postalCode": "33619",
      "streetAddress": "9915 Adamo Drive East"
    },
    "faxNumber": "(813)628-4402",
    "geo": {
      "latitude": 27.94667,
      "longitude": -82.34134
    },
    "id": "10253",
    "name": "Brandon Mitsubishi",
    "telephone": "(813)628-4444",
    "url": "www.brandonmitsubishi.com"
  },
  {
    "address": {
      "addressCountry": "United States",
      "addressLocality": "South Burlington",
      "addressRegion": "VT",
      "postalCode": "05403",
      "streetAddress": "1835 Shelburne Road"
    },
    "faxNumber": "(802)865-1200",
    "geo": {
      "latitude": 44.422554,
      "longitude": -73.21207
    },
    "id": "47007",
    "name": "Burlington Mitsubishi",
    "telephone": "(802)865-4400",
    "url": "www.mitsubishivt.com"
  },
  {
    "address": {
      "addressCountry": "United States",
      "addressLocality": "El Cajon",
      "addressRegion": "CA",
      "postalCode": "92020",
      "streetAddress": "247 El Cajon Blvd."
    },
    "faxNumber": "(619)579-2409",
    "geo": {
      "latitude": 32.79342,
      "longitude": -116.96914
    },
    "id": "05423",
    "name": "El Cajon Mitsubishi",
    "telephone": "(619)588-2922",
    "url": "www.elcajonmitsubishi.com"
  },
  {
    "address": {
      "addressCountry": "United States",
      "addressLocality": "Columbus",
      "addressRegion": "GA",
      "postalCode": "31907",
      "streetAddress": "1801 Box Road"
    },
    "faxNumber": "(706)562-0419",
    "geo": {
      "latitude": 32.48035,
      "longitude": -84.93666
    },
    "id": "11155",
    "name": "Columbus Mitsubishi",
    "telephone": "(706)562-0400",
    "url": "www.columbusgamitsubishi.com"
  },
  {
    "address": {
      "addressCountry": "United States",
      "addressLocality": "Roswell",
      "addressRegion": "GA",
      "postalCode": "30076",
      "streetAddress": "11170 Alpharetta Highway"
    },
    "faxNumber": "(800)774-1356",
    "geo": {
      "latitude": 34.051804,
      "longitude": -84.33467
    },
    "id": "11154",
    "name": "Roswell Mitsubishi",
    "telephone": "(678)349-2900",
    "url": "www.roswellmitsubishi.com"
  },
  {
    "address": {
      "addressCountry": "United States",
      "addressLocality": "Lewisville",
      "addressRegion": "TX",
      "postalCode": "75067",
      "streetAddress": "1651 S. Stemmons Freeway"
    },
    "faxNumber": "(972)219-6984",
    "geo": {
      "latitude": 33.022686,
      "longitude": -96.98703
    },
    "id": "44180",
    "name": "Lewisville Mitsubishi",
    "telephone": "(972)353-9300",
    "url": "www.lewisvillemitsu.com"
  },
  {
    "address": {
      "addressCountry": "United States",
      "addressLocality": "Augusta",
      "addressRegion": "GA",
      "postalCode": "30909",
      "streetAddress": "2003 Gordon Highway"
    },
    "faxNumber": "(706)733-8355",
    "geo": {
      "latitude": 33.452553,
      "longitude": -82.05338
    },
    "id": "11151",
    "name": "Gerald Jones Mitsubishi",
    "telephone": "(706)733-4140",
    "url": "www.geraldjonesmitsubishi.com"
  },
  {
    "address": {
      "addressCountry": "United States",
      "addressLocality": "Milwaukee",
      "addressRegion": "WI",
      "postalCode": "53221",
      "streetAddress": "4640 S. 27Th Street"
    },
    "faxNumber": "(414)281-9130",
    "geo": {
      "latitude": 42.96001,
      "longitude": -87.94851
    },
    "id": "49052",
    "name": "Schlossmann City Mitsubishi",
    "telephone": "(414)281-9100",
    "url": "www.mitsubishiofmilwaukee.com"
  },
  {
    "address": {
      "addressCountry": "United States",
      "addressLocality": "Billings",
      "addressRegion": "MT",
      "postalCode": "59102",
      "streetAddress": "2244 Central Avenue"
    },
    "faxNumber": "(406)656-0400",
    "geo": {
      "latitude": 45.769764,
      "longitude": -108.57329
    },
    "id": "27004",
    "name": "Bob Smith Mitsubishi-Mt",
    "telephone": "(406)656-0000",
    "url": null
  },
  {
    "address": {
      "addressCountry": "United States",
      "addressLocality": "Duluth",
      "addressRegion": "GA",
      "postalCode": "30096",
      "streetAddress": "3285 Commerce Avenue"
    },
    "faxNumber": "(678)957-0333",
    "geo": {
      "latitude": 33.959747,
      "longitude": -84.12116
    },
    "id": "11158",
    "name": "Gwinnett Mitsubishi",
    "telephone": "(678)417-2277",
    "url": "www.gwinnettmitsubishi.com"
  },
  {
    "address": {
      "addressCountry": "United States",
      "addressLocality": "Watertown",
      "addressRegion": "NY",
      "postalCode": "13601-0029",
      "streetAddress": "18352 U.S. Route 11"
    },
    "faxNumber": "(315)788-0218",
    "geo": {
      "latitude": 43.93198,
      "longitude": -75.9375
    },
    "id": "35097",
    "name": "Fuccillo Mitsubishi",
    "telephone": "(315)785-0405",
    "url": "www.fuccillomitsu.com"
  },
  {
    "address": {
      "addressCountry": "United States",
      "addressLocality": "New Bern",
      "addressRegion": "NC",
      "postalCode": "28560",
      "streetAddress": "1307 U.S. Highway 70 E"
    },
    "faxNumber": "(252)633-5225",
    "geo": {
      "latitude": 35.075188,
      "longitude": -77.02851
    },
    "id": "28090",
    "name": "Riverside Mitsubishi-Nc",
    "telephone": "(252)633-4411",
    "url": "www.riversidemitsubishinc.com"
  },
  {
    "address": {
      "addressCountry": "United States",
      "addressLocality": "Durham",
      "addressRegion": "NC",
      "postalCode": "27703",
      "streetAddress": "1331 S. Miami Blvd."
    },
    "faxNumber": "(919)226-3378",
    "geo": {
      "latitude": 35.956852,
      "longitude": -78.84176
    },
    "id": "28091",
    "name": "Cbs Mitsubishi-Durham",
    "telephone": "(919)596-0034",
    "url": "www.cbsqualitycars.com"
  },
  {
    "address": {
      "addressCountry": "United States",
      "addressLocality": "Lafayette",
      "addressRegion": "IN",
      "postalCode": "47905-4730",
      "streetAddress": "815 Sagamore Parkway South"
    },
    "faxNumber": "(765)448-3798",
    "geo": {
      "latitude": 40.407536,
      "longitude": -86.85766
    },
    "id": "16006",
    "name": "Bob Rohrman Mitsubishi",
    "telephone": "(765)448-1000",
    "url": "www.rohrmanmitsubishi.com"
  },
  {
    "address": {
      "addressCountry": "United States",
      "addressLocality": "Indianapolis",
      "addressRegion": "IN",
      "postalCode": "46227-6230",
      "streetAddress": "8420 U.S. 31 South"
    },
    "faxNumber": "(317)887-5180",
    "geo": {
      "latitude": 39.64518,
      "longitude": -86.133766
    },
    "id": "16004",
    "name": "Ray Skillman Mitsubishi",
    "telephone": "(317)885-2700",
    "url": "www.rayskillmansouthsidemitsubishi.com"
  },
  {
    "address": {
      "addressCountry": "United States",
      "addressLocality": "Medford",
      "addressRegion": "NY",
      "postalCode": "11763",
      "streetAddress": "2004 Route 112"
    },
    "faxNumber": "(631)730-7636",
    "geo": {
      "latitude": 40.80675,
      "longitude": -73.00313
    },
    "id": "35167",
    "name": "112 Mitsubishi",
    "telephone": "(631)758-2277",
    "url": "www.112mitsubishi.com"
  },
  {
    "address": {
      "addressCountry": "United States",
      "addressLocality": "Rochester",
      "addressRegion": "NY",
      "postalCode": "14623-3703",
      "streetAddress": "2400 W. Henrietta Road"
    },
    "faxNumber": "(585)272-0317",
    "geo": {
      "latitude": 43.10401,
      "longitude": -77.627884
    },
    "id": "35114",
    "name": "Cortese Mitsubishi",
    "telephone": "(585)272-1000",
    "url": "www.cortesemitsubishi.com"
  },
  {
    "address": {
      "addressCountry": "United States",
      "addressLocality": "Greensburg",
      "addressRegion": "PA",
      "postalCode": "15601",
      "streetAddress": "5079 State Route 30"
    },
    "faxNumber": "(724)837-7240",
    "geo": {
      "latitude": 40.30126,
      "longitude": -79.49129
    },
    "id": "39105",
    "name": "Sendell Mitsubishi",
    "telephone": "(724)837-1600",
    "url": "www.sendellmitsubishi.com"
  },
  {
    "address": {
      "addressCountry": "United States",
      "addressLocality": "Massillon",
      "addressRegion": "OH",
      "postalCode": "44646-3721",
      "streetAddress": "3710 Lincoln Way East"
    },
    "faxNumber": "(330)478-1838",
    "geo": {
      "latitude": 40.794174,
      "longitude": -81.46228
    },
    "id": "36025",
    "name": "Waikem Mitsubishi",
    "telephone": "(330)478-0281",
    "url": "www.waikemmitsubishi.com"
  },
  {
    "address": {
      "addressCountry": "United States",
      "addressLocality": "Fayetteville",
      "addressRegion": "AR",
      "postalCode": "72703-3506",
      "streetAddress": "3195 N. College"
    },
    "faxNumber": "(479)443-1647",
    "geo": {
      "latitude": 36.108955,
      "longitude": -94.14517
    },
    "id": "03004",
    "name": "Superior Mitsubishi-Ar",
    "telephone": "(479)442-7800",
    "url": "www.superiormitsubishi.com"
  },
  {
    "address": {
      "addressCountry": "United States",
      "addressLocality": "Salt Lake City",
      "addressRegion": "UT",
      "postalCode": "84111-3109",
      "streetAddress": "150 East 500 South"
    },
    "faxNumber": "(801)355-1332",
    "geo": {
      "latitude": 40.758476,
      "longitude": -111.887146
    },
    "id": "45016",
    "name": "Ken Garff Mitsubishi",
    "telephone": "(801)257-3300",
    "url": "www.kengarffmitsubishidowntown.com"
  },
  {
    "address": {
      "addressCountry": "United States",
      "addressLocality": "Hempstead",
      "addressRegion": "NY",
      "postalCode": "11550",
      "streetAddress": "265 N. Franklin Street"
    },
    "faxNumber": "(516)565-1837",
    "geo": {
      "latitude": 40.715305,
      "longitude": -73.63012
    },
    "id": "35179",
    "name": "Planet Mitsubishi-Ny",
    "telephone": "(516)565-2400",
    "url": "www.planetmitsubishicars.com"
  },
  {
    "address": {
      "addressCountry": "United States",
      "addressLocality": "Vestal",
      "addressRegion": "NY",
      "postalCode": "13850",
      "streetAddress": "2100 Vestal Parkway East"
    },
    "faxNumber": "(607)754-4048",
    "geo": {
      "latitude": 42.093338,
      "longitude": -76.01979
    },
    "id": "35178",
    "name": "Matthews Mitsubishi",
    "telephone": "(607)754-2050",
    "url": "www.matthewsmitsubishi.com"
  },
  {
    "address": {
      "addressCountry": "United States",
      "addressLocality": "Savannah",
      "addressRegion": "GA",
      "postalCode": "31406",
      "streetAddress": "8203 White Bluff Road"
    },
    "faxNumber": "(912)925-6343",
    "geo": {
      "latitude": 31.999966,
      "longitude": -81.12177
    },
    "id": "11157",
    "name": "Savannah Mitsubishi",
    "telephone": "(912)927-4741",
    "url": "www.savannahmitsubishi.com"
  },
  {
    "address": {
      "addressCountry": "United States",
      "addressLocality": "Hamburg",
      "addressRegion": "NY",
      "postalCode": "14075",
      "streetAddress": "5160 Camp Road"
    },
    "faxNumber": "(716)646-1040",
    "geo": {
      "latitude": 42.74701,
      "longitude": -78.85247
    },
    "id": "35175",
    "name": "Hamburg Mitsubishi",
    "telephone": "(716)646-6000",
    "url": "www.hamburgmitsubishi.com"
  },
  {
    "address": {
      "addressCountry": "United States",
      "addressLocality": "Stratham",
      "addressRegion": "NH",
      "postalCode": "03885",
      "streetAddress": "50 Portsmouth Avenue"
    },
    "faxNumber": "(603)772-5565",
    "geo": {
      "latitude": 43.003567,
      "longitude": -70.91948
    },
    "id": "31021",
    "name": "Stratham Mitsubishi",
    "telephone": "(603)772-9378",
    "url": "www.strathammitsubishi.com"
  },
  {
    "address": {
      "addressCountry": "United States",
      "addressLocality": "Fairborn",
      "addressRegion": "OH",
      "postalCode": "45324",
      "streetAddress": "1045 N. Central Avenue"
    },
    "faxNumber": "(937)879-1549",
    "geo": {
      "latitude": 39.80923,
      "longitude": -84.02257
    },
    "id": "36061",
    "name": "Jeff Schmitt Mitsubishi",
    "telephone": "(937)878-3471",
    "url": "www.jeffschmittmitsubishi.com"
  },
  {
    "address": {
      "addressCountry": "United States",
      "addressLocality": "Houston",
      "addressRegion": "TX",
      "postalCode": "77090",
      "streetAddress": "18018 I-45 North"
    },
    "faxNumber": "(281)209-4435",
    "geo": {
      "latitude": 30.02148,
      "longitude": -95.4287
    },
    "id": "44012",
    "name": "Gillman Mitsubishi North",
    "telephone": "(281)821-2600",
    "url": "www.gillmanmitsubishinorthhouston.com"
  },
  {
    "address": {
      "addressCountry": "United States",
      "addressLocality": "Toledo",
      "addressRegion": "OH",
      "postalCode": "43615",
      "streetAddress": "5625 West Central Avenue"
    },
    "faxNumber": "(419)578-0109",
    "geo": {
      "latitude": 41.676476,
      "longitude": -83.677055
    },
    "id": "36071",
    "name": "Brown Mitsubishi",
    "telephone": "(419)531-0151",
    "url": "www.brownmitsubishi.com"
  },
  {
    "address": {
      "addressCountry": "United States",
      "addressLocality": "Springfield",
      "addressRegion": "IL",
      "postalCode": "62707",
      "streetAddress": "3861 W. Wabash Avenue"
    },
    "faxNumber": "(217)535-2387",
    "geo": {
      "latitude": 39.75709,
      "longitude": -89.72095
    },
    "id": "15096",
    "name": "Green Mitsubishi",
    "telephone": "(217)525-1222",
    "url": "www.greenmitsubishi.com"
  },
  {
    "address": {
      "addressCountry": "United States",
      "addressLocality": "Monee",
      "addressRegion": "IL",
      "postalCode": "60449",
      "streetAddress": "25963 S. Governor'S Highway"
    },
    "faxNumber": "(708)534-0638",
    "geo": {
      "latitude": 41.41814,
      "longitude": -87.74724
    },
    "id": "15097",
    "name": "South Suburban Mitsubishi Monee",
    "telephone": "(708)534-0611",
    "url": "www.moneemitsubishi.com"
  },
  {
    "address": {
      "addressCountry": "United States",
      "addressLocality": "Normal",
      "addressRegion": "IL",
      "postalCode": "61761-0899",
      "streetAddress": "1601 Ft. Jesse Road"
    },
    "faxNumber": "(309)454-6720",
    "geo": {
      "latitude": 40.517742,
      "longitude": -88.95398
    },
    "id": "15010",
    "name": "O'brien Mitsubishi-Normal",
    "telephone": "(309)454-1222",
    "url": "www.obrienteamnormal.com"
  },
  {
    "address": {
      "addressCountry": "United States",
      "addressLocality": "Victoria",
      "addressRegion": "TX",
      "postalCode": "77901-3346",
      "streetAddress": "3211 N. Navarro"
    },
    "faxNumber": "(361)578-2841",
    "geo": {
      "latitude": 28.82534,
      "longitude": -97.000854
    },
    "id": "44097",
    "name": "Atzenhoffer Mitsubishi",
    "telephone": "(361)578-0181",
    "url": "www.atzenhoffermitsubishi.com"
  },
  {
    "address": {
      "addressCountry": "United States",
      "addressLocality": "Peoria",
      "addressRegion": "IL",
      "postalCode": "61615-1840",
      "streetAddress": "2007 West Pioneer Parkway"
    },
    "faxNumber": "(309)693-0322",
    "geo": {
      "latitude": 40.783417,
      "longitude": -89.62368
    },
    "id": "15013",
    "name": "Mike Miller Mitsubishi",
    "telephone": "(309)693-1222",
    "url": "www.mikemillermitsubishi.com"
  },
  {
    "address": {
      "addressCountry": "United States",
      "addressLocality": "Roseville",
      "addressRegion": "CA",
      "postalCode": "95661",
      "streetAddress": "780 Automall Drive"
    },
    "faxNumber": "(916)783-1030",
    "geo": {
      "latitude": 38.749416,
      "longitude": -121.25549
    },
    "id": "05352",
    "name": "Roseville Mitsubishi",
    "telephone": "(916)783-1000",
    "url": "www.rosevillemitsubishi.com"
  },
  {
    "address": {
      "addressCountry": "United States",
      "addressLocality": "Avondale",
      "addressRegion": "AZ",
      "postalCode": "85323",
      "streetAddress": "10555 W Papago Freeway"
    },
    "faxNumber": "(877)753-7874",
    "geo": {
      "latitude": 33.45942,
      "longitude": -112.28837
    },
    "id": "04066",
    "name": "Avondale Mitsubishi",
    "telephone": "(623)299-8833",
    "url": "www.avondalemitsubishi.com"
  },
  {
    "address": {
      "addressCountry": "United States",
      "addressLocality": "Yuma",
      "addressRegion": "AZ",
      "postalCode": "85365",
      "streetAddress": "1350 E. 32Nd Street"
    },
    "faxNumber": "(928)317-3850",
    "geo": {
      "latitude": 32.669514,
      "longitude": -114.606415
    },
    "id": "04065",
    "name": "Bill Alexander Flightlne Mitsubishi",
    "telephone": "(928)314-3400",
    "url": "www.flightlinemitsubishi.com"
  },
  {
    "address": {
      "addressCountry": "United States",
      "addressLocality": "Aiea",
      "addressRegion": "HI",
      "postalCode": "96701",
      "streetAddress": "98-015 Kamehameha Hwy"
    },
    "faxNumber": "(808)564-9212",
    "geo": {
      "latitude": 21.385767,
      "longitude": -157.95166
    },
    "id": "12023",
    "name": "Cutter Mitsubishi-Aiea",
    "telephone": "(808)564-9777",
    "url": "www.cuttermitsubishi.com"
  },
  {
    "address": {
      "addressCountry": "United States",
      "addressLocality": "Orlando",
      "addressRegion": "FL",
      "postalCode": "32809-7980",
      "streetAddress": "8701 So. Orange Blossom Trail"
    },
    "faxNumber": "(407)888-1442",
    "geo": {
      "latitude": 28.43901,
      "longitude": -81.40397
    },
    "id": "10013",
    "name": "Fountain Mitsubishi",
    "telephone": "(407)240-3800",
    "url": "www.fountainmitsubishi.com"
  },
  {
    "address": {
      "addressCountry": "United States",
      "addressLocality": "Chapmanville",
      "addressRegion": "WV",
      "postalCode": "25508",
      "streetAddress": "U.S. Rte 119 At Trace Fork Rd"
    },
    "faxNumber": "(304)855-4013",
    "geo": {
      "latitude": 37.945797,
      "longitude": -82.04929
    },
    "id": "50013",
    "name": "Thornhill Mitsubishi",
    "telephone": "(304)855-4092",
    "url": "thornhillmitsubishi.com"
  },
  {
    "address": {
      "addressCountry": "United States",
      "addressLocality": "Selma",
      "addressRegion": "TX",
      "postalCode": "78154",
      "streetAddress": "16040 Interstate Hwy 35 N."
    },
    "faxNumber": "(210)564-2802",
    "geo": {
      "latitude": 29.585997,
      "longitude": -98.30253
    },
    "id": "44024",
    "name": "Gillman Mitsubishi-Selma",
    "telephone": "(210)651-9345",
    "url": "www.gillmanmitsubishisanantonio.com/"
  },
  {
    "address": {
      "addressCountry": "United States",
      "addressLocality": "Cherry Hill",
      "addressRegion": "NJ",
      "postalCode": "08002",
      "streetAddress": "1805 West Marlton Pike"
    },
    "faxNumber": "(856)382-3426",
    "geo": {
      "latitude": 39.91835,
      "longitude": -75.032005
    },
    "id": "32066",
    "name": "Cherry Hill Mitsubishi",
    "telephone": "(856)665-6799",
    "url": "www.cherryhillmitsubishi.com"
  },
  {
    "address": {
      "addressCountry": "United States",
      "addressLocality": "Fresno",
      "addressRegion": "CA",
      "postalCode": "93710",
      "streetAddress": "5505 N. Blackstone Avenue"
    },
    "faxNumber": "(559)348-5639",
    "geo": {
      "latitude": 36.817844,
      "longitude": -119.790504
    },
    "id": "05454",
    "name": "Fresno Mitsubishi",
    "telephone": "(559)348-5600",
    "url": "www.fresnomitsubishi.com"
  },
  {
    "address": {
      "addressCountry": "United States",
      "addressLocality": "Sacramento",
      "addressRegion": "CA",
      "postalCode": "95821",
      "streetAddress": "2820 Fulton Ave"
    },
    "faxNumber": "(916)266-7476",
    "geo": {
      "latitude": 38.616135,
      "longitude": -121.40147
    },
    "id": "05457",
    "name": "Lutes Mitsubishi",
    "telephone": "(916)266-6250",
    "url": "www.lutesmitsubishi.com"
  },
  {
    "address": {
      "addressCountry": "United States",
      "addressLocality": "Turnersville",
      "addressRegion": "NJ",
      "postalCode": "08012-8204",
      "streetAddress": "4271 Black Horse Pike"
    },
    "faxNumber": "(856)629-1682",
    "geo": {
      "latitude": 39.739723,
      "longitude": -75.04319
    },
    "id": "32065",
    "name": "Prestige Mitsubishi",
    "telephone": "(856)629-9200",
    "url": "www.prestigemitsubishi.com"
  },
  {
    "address": {
      "addressCountry": "United States",
      "addressLocality": "Fort Collins",
      "addressRegion": "CO",
      "postalCode": "80525",
      "streetAddress": "2712 South College Avenue"
    },
    "faxNumber": "(970)573-3192",
    "geo": {
      "latitude": 40.55008,
      "longitude": -105.07677
    },
    "id": "06065",
    "name": "Fort Collins Mitsubishi",
    "telephone": "(970)286-2200",
    "url": "www.fortcollinsmitsubishi.com"
  },
  {
    "address": {
      "addressCountry": "United States",
      "addressLocality": "Fargo",
      "addressRegion": "ND",
      "postalCode": "58103",
      "streetAddress": "402 40Th Street, S.W."
    },
    "faxNumber": "(701)356-8666",
    "geo": {
      "latitude": 46.87088,
      "longitude": -96.84584
    },
    "id": "29001",
    "name": "Valley Imports Mitsubishi",
    "telephone": "(701)277-1777",
    "url": "www.valleyimportsmitsubishi.com"
  },
  {
    "address": {
      "addressCountry": "United States",
      "addressLocality": "Colorado Springs",
      "addressRegion": "CO",
      "postalCode": "80918",
      "streetAddress": "4391 Austin Bluffs Parkway"
    },
    "faxNumber": "(719)457-7232",
    "geo": {
      "latitude": 38.895313,
      "longitude": -104.74963
    },
    "id": "06067",
    "name": "Bob Penkhus Mitsubishi",
    "telephone": "(719)955-5000",
    "url": "bobpenkhusmitsubishicoloradosprings.cms.dealer.com"
  },
  {
    "address": {
      "addressCountry": "United States",
      "addressLocality": "Golden",
      "addressRegion": "CO",
      "postalCode": "80401",
      "streetAddress": "16655 W. Colfax Avenue"
    },
    "faxNumber": "(303)238-3314",
    "geo": {
      "latitude": 39.72635,
      "longitude": -105.18664
    },
    "id": "06066",
    "name": "Christopher's Mitsubishi",
    "telephone": "(303)238-7311",
    "url": "www.christophersmitsubishi.com"
  },
  {
    "address": {
      "addressCountry": "United States",
      "addressLocality": "Christiansburg",
      "addressRegion": "VA",
      "postalCode": "24073",
      "streetAddress": "240 Jarrett Drive"
    },
    "faxNumber": "(540)381-8644",
    "geo": {
      "latitude": 37.13403,
      "longitude": -80.36306
    },
    "id": "46076",
    "name": "Motor Mile Mitsubishi",
    "telephone": "(540)381-8417",
    "url": "www.christiansburgmitsubishi.com"
  },
  {
    "address": {
      "addressCountry": "United States",
      "addressLocality": "Fredericksburg",
      "addressRegion": "VA",
      "postalCode": "22408",
      "streetAddress": "3475 Jefferson Davis Hwy"
    },
    "faxNumber": "(540)898-0047",
    "geo": {
      "latitude": 38.272034,
      "longitude": -77.49288
    },
    "id": "46074",
    "name": "Shirlie Slack Mitsubishi",
    "telephone": "(540)898-8230",
    "url": "www.slackmitsubishi.com"
  },
  {
    "address": {
      "addressCountry": "United States",
      "addressLocality": "Sioux Falls",
      "addressRegion": "SD",
      "postalCode": "57105",
      "streetAddress": "1500 South Minnesota Avenue"
    },
    "faxNumber": "(605)373-8105",
    "geo": {
      "latitude": 43.532013,
      "longitude": -96.73123
    },
    "id": "42007",
    "name": "Vern Eide Mitsubishi",
    "telephone": "(605)373-8111",
    "url": "www.verneidemitsubishi.com"
  },
  {
    "address": {
      "addressCountry": "United States",
      "addressLocality": "Hampton",
      "addressRegion": "VA",
      "postalCode": "23666",
      "streetAddress": "4206 W. Mercury Blvd."
    },
    "faxNumber": "(757)825-7201",
    "geo": {
      "latitude": 37.02612,
      "longitude": -76.431145
    },
    "id": "46079",
    "name": "Pomoco Mitsubishi Hampton",
    "telephone": "(757)890-8800",
    "url": "www.pomocomitsubishi.com"
  },
  {
    "address": {
      "addressCountry": "United States",
      "addressLocality": "Littleton",
      "addressRegion": "CO",
      "postalCode": "80121",
      "streetAddress": "6120 S Broadway"
    },
    "faxNumber": "(720)420-1801",
    "geo": {
      "latitude": 39.60535,
      "longitude": -104.98812
    },
    "id": "06068",
    "name": "Mcdonald Mitsubishi",
    "telephone": "(303)795-1100",
    "url": "www.mcdonaldmitsubishi.com"
  },
  {
    "address": {
      "addressCountry": "United States",
      "addressLocality": "Buford",
      "addressRegion": "GA",
      "postalCode": "30519",
      "streetAddress": "3741 Buford Drive"
    },
    "faxNumber": "(678)546-9200",
    "geo": {
      "latitude": 34.084038,
      "longitude": -83.98855
    },
    "id": "11149",
    "name": "Shad Mitsubishi-Buford",
    "telephone": "(678)482-2277",
    "url": "www.shadmitsubishimallofgeorgia.com"
  },
  {
    "address": {
      "addressCountry": "United States",
      "addressLocality": "Longview",
      "addressRegion": "TX",
      "postalCode": "75604-5016",
      "streetAddress": "912 W. Loop 281"
    },
    "faxNumber": "(903)759-6574",
    "geo": {
      "latitude": 32.5115,
      "longitude": -94.79511
    },
    "id": "44160",
    "name": "Heritage Mitsubishi-Longview",
    "telephone": "(903)295-9200",
    "url": "www.heritagemitsubishi.com"
  },
  {
    "address": {
      "addressCountry": "United States",
      "addressLocality": "Grand Rapids",
      "addressRegion": "MI",
      "postalCode": "49525-1627",
      "streetAddress": "3985 Plainfield N.E."
    },
    "faxNumber": "(616)361-6634",
    "geo": {
      "latitude": 43.035572,
      "longitude": -85.6182
    },
    "id": "23006",
    "name": "Gezon Mitsubishi",
    "telephone": "(616)361-7361",
    "url": "www.gezonmitsubishi.com"
  },
  {
    "address": {
      "addressCountry": "United States",
      "addressLocality": "Bethel Park",
      "addressRegion": "PA",
      "postalCode": "15102-2771",
      "streetAddress": "5172 Library Road Route 88"
    },
    "faxNumber": "(412)831-0886",
    "geo": {
      "latitude": 40.335625,
      "longitude": -80.02412
    },
    "id": "39097",
    "name": "South Park Mitsubishi",
    "telephone": "(412)831-0700",
    "url": "www.southparkmitsubishi.com"
  },
  {
    "address": {
      "addressCountry": "United States",
      "addressLocality": "Lafayette",
      "addressRegion": "LA",
      "postalCode": "70503",
      "streetAddress": "6171 Johnston Street"
    },
    "faxNumber": "(337)769-7607",
    "geo": {
      "latitude": 30.162594,
      "longitude": -92.08432
    },
    "id": "19024",
    "name": "Hampton Mitsubishi",
    "telephone": "(337)988-2995",
    "url": "www.hamptonmitsubishi.com"
  },
  {
    "address": {
      "addressCountry": "United States",
      "addressLocality": "Terre Haute",
      "addressRegion": "IN",
      "postalCode": "47802",
      "streetAddress": "74 East Springhill Drive"
    },
    "faxNumber": "(812)478-5078",
    "geo": {
      "latitude": 39.412384,
      "longitude": -87.417076
    },
    "id": "16035",
    "name": "Dorsett Mitsubishi",
    "telephone": "(812)232-5500",
    "url": "www.dorsettsmitsubishi.com"
  },
  {
    "address": {
      "addressCountry": "United States",
      "addressLocality": "Portage",
      "addressRegion": "IN",
      "postalCode": "46368",
      "streetAddress": "5020 U.S. Highway 6"
    },
    "faxNumber": "(219)764-5021",
    "geo": {
      "latitude": 41.550644,
      "longitude": -87.21878
    },
    "id": "16034",
    "name": "Nielsen Mitsubishi",
    "telephone": "(219)764-5020",
    "url": "www.nielsenmitsubishi.com"
  },
  {
    "address": {
      "addressCountry": "United States",
      "addressLocality": "New Haven",
      "addressRegion": "IN",
      "postalCode": "46774-1319",
      "streetAddress": "631 Lincoln Highway West"
    },
    "faxNumber": "(260)748-6373",
    "geo": {
      "latitude": 41.06986,
      "longitude": -85.03916
    },
    "id": "16033",
    "name": "O'daniel Mitsubishi-In",
    "telephone": "(260)748-6200",
    "url": "www.odanielmitsu.com"
  },
  {
    "address": {
      "addressCountry": "United States",
      "addressLocality": "Winston Salem",
      "addressRegion": "NC",
      "postalCode": "27127",
      "streetAddress": "1635 Silas Creek Parkway"
    },
    "faxNumber": "(336)631-3137",
    "geo": {
      "latitude": 36.06794,
      "longitude": -80.26205
    },
    "id": "28005",
    "name": "Bob King Mitsubishi",
    "telephone": "(336)397-2700",
    "url": "www.bobkingmitsubishi.com"
  },
  {
    "address": {
      "addressCountry": "United States",
      "addressLocality": "Merced",
      "addressRegion": "CA",
      "postalCode": "95340",
      "streetAddress": "810 West Main Street"
    },
    "faxNumber": "(209)722-0049",
    "geo": {
      "latitude": 37.303154,
      "longitude": -120.48816
    },
    "id": "05366",
    "name": "Mcauley Mitsubishi",
    "telephone": "(209)722-2777",
    "url": null
  },
  {
    "address": {
      "addressCountry": "United States",
      "addressLocality": "Saint Petersburg",
      "addressRegion": "FL",
      "postalCode": "33714",
      "streetAddress": "5400 34Th Street North"
    },
    "faxNumber": "(727)528-4257",
    "geo": {
      "latitude": 27.821535,
      "longitude": -82.67961
    },
    "id": "10006",
    "name": "Crown Mitsubishi-Fl",
    "telephone": "(727)525-4990",
    "url": "www.crownmitsubishi.com"
  },
  {
    "address": {
      "addressCountry": "United States",
      "addressLocality": "Sumter",
      "addressRegion": "SC",
      "postalCode": "29150-1847",
      "streetAddress": "2700 Broad Street Extension"
    },
    "faxNumber": "(803)469-2606",
    "geo": {
      "latitude": 33.962593,
      "longitude": -80.40209
    },
    "id": "41033",
    "name": "Goodwin Mitsubishi",
    "telephone": "(803)469-2595",
    "url": null
  },
  {
    "address": {
      "addressCountry": "United States",
      "addressLocality": "Williamsville",
      "addressRegion": "NY",
      "postalCode": "14221",
      "streetAddress": "7428 Transit Road"
    },
    "faxNumber": "(716)632-6901",
    "geo": {
      "latitude": 42.97002,
      "longitude": -78.696846
    },
    "id": "35168",
    "name": "Transitowne Mitsubishi",
    "telephone": "(716)634-3000",
    "url": "www.transitownemitsubishi.com"
  },
  {
    "address": {
      "addressCountry": "United States",
      "addressLocality": "Saint James",
      "addressRegion": "NY",
      "postalCode": "11780",
      "streetAddress": "827 Jericho Turnpike"
    },
    "faxNumber": "(631)724-4077",
    "geo": {
      "latitude": 40.8614,
      "longitude": -73.146225
    },
    "id": "35169",
    "name": "Smith Haven Mitsubishi",
    "telephone": "(631)724-4070",
    "url": "www.smithhavenmitsubishi.com/"
  },
  {
    "address": {
      "addressCountry": "United States",
      "addressLocality": "Spokane",
      "addressRegion": "WA",
      "postalCode": "99212-2918",
      "streetAddress": "8412 East Sprague Avenue"
    },
    "faxNumber": "(509)688-8469",
    "geo": {
      "latitude": 47.656933,
      "longitude": -117.29168
    },
    "id": "48038",
    "name": "Autonation Mitsubishi-Spokane",
    "telephone": "(509)927-3850",
    "url": "www.spokanevalleymitsubishi.com"
  },
  {
    "address": {
      "addressCountry": "United States",
      "addressLocality": "Hilliard",
      "addressRegion": "OH",
      "postalCode": "43026",
      "streetAddress": "3880 Fishinger Blvd."
    },
    "faxNumber": "(614)529-7316",
    "geo": {
      "latitude": 40.032192,
      "longitude": -83.11621
    },
    "id": "36073",
    "name": "Columbus Mitsubishi West",
    "telephone": "(614)771-9700",
    "url": "www.columbusmitsu.com"
  },
  {
    "address": {
      "addressCountry": "United States",
      "addressLocality": "Cayce",
      "addressRegion": "SC",
      "postalCode": "29033",
      "streetAddress": "1255 Knox Abbott Drive"
    },
    "faxNumber": "(803)926-7376",
    "geo": {
      "latitude": 33.979023,
      "longitude": -81.071655
    },
    "id": "41064",
    "name": "Love Mitsubishi",
    "telephone": "(803)407-4800",
    "url": "www.ilovemitsu.com"
  },
  {
    "address": {
      "addressCountry": "United States",
      "addressLocality": "Concord",
      "addressRegion": "CA",
      "postalCode": "94520",
      "streetAddress": "2199 Meridian Park Blvd"
    },
    "faxNumber": "(925)685-2914",
    "geo": {
      "latitude": 37.97745,
      "longitude": -122.057686
    },
    "id": "05042",
    "name": "Concord Mitsubishi",
    "telephone": "(925)682-7100",
    "url": "www.concordmitsubishi.com"
  },
  {
    "address": {
      "addressCountry": "United States",
      "addressLocality": "Nampa",
      "addressRegion": "ID",
      "postalCode": "83687",
      "streetAddress": "16295 Idaho Center Blvd."
    },
    "faxNumber": "(208)489-1465",
    "geo": {
      "latitude": 43.6094,
      "longitude": -116.513214
    },
    "id": "14012",
    "name": "Bronco Motors Mitsubishi",
    "telephone": "(208)376-8510",
    "url": "www.broncomotorsmitsubishi.com"
  },
  {
    "address": {
      "addressCountry": "United States",
      "addressLocality": "Pensacola",
      "addressRegion": "FL",
      "postalCode": "32506",
      "streetAddress": "106 New Warrington Road"
    },
    "faxNumber": "(850)453-3690",
    "geo": {
      "latitude": 30.409575,
      "longitude": -87.276405
    },
    "id": "10160",
    "name": "Pete Moore Mitsubishi",
    "telephone": "(850)457-1000",
    "url": "www.petemooremitsubishi.com"
  },
  {
    "address": {
      "addressCountry": "United States",
      "addressLocality": "Glendale",
      "addressRegion": "CA",
      "postalCode": "91204",
      "streetAddress": "1231-1235 South Brand Blvd."
    },
    "faxNumber": "(818)549-3888",
    "geo": {
      "latitude": 34.13095,
      "longitude": -118.25497
    },
    "id": "05361",
    "name": "Glendale Mitsubishi-Ca",
    "telephone": "(818)550-1500",
    "url": "www.glendalemitsubishi.com"
  },
  {
    "address": {
      "addressCountry": "United States",
      "addressLocality": "Florence",
      "addressRegion": "AL",
      "postalCode": "35630",
      "streetAddress": "1602 Florence Blvd."
    },
    "faxNumber": "(256)768-7064",
    "geo": {
      "latitude": 34.826347,
      "longitude": -87.64267
    },
    "id": "02042",
    "name": "Long Lewis Mitsubishi",
    "telephone": "(256)764-3351",
    "url": "www.longlewismitsubishi.com"
  },
  {
    "address": {
      "addressCountry": "United States",
      "addressLocality": "Mobile",
      "addressRegion": "AL",
      "postalCode": "36606",
      "streetAddress": "1431 E. I-65 Service Rd. South"
    },
    "faxNumber": "(251)471-9987",
    "geo": {
      "latitude": 30.660126,
      "longitude": -88.125465
    },
    "id": "02041",
    "name": "Koby Mitsubishi",
    "telephone": "(251)478-5000",
    "url": "www.kobymitsubishi.com"
  },
  {
    "address": {
      "addressCountry": "United States",
      "addressLocality": "Montgomery",
      "addressRegion": "AL",
      "postalCode": "36116",
      "streetAddress": "3000 Eastern Bypass"
    },
    "faxNumber": "(334)396-8692",
    "geo": {
      "latitude": 32.338486,
      "longitude": -86.2273
    },
    "id": "02040",
    "name": "Montgomery Mitsubishi",
    "telephone": "(334)260-2064",
    "url": "www.montgomerymitsubishi.com"
  },
  {
    "address": {
      "addressCountry": "United States",
      "addressLocality": "Quakertown",
      "addressRegion": "PA",
      "postalCode": "18951",
      "streetAddress": "840 S. West End"
    },
    "faxNumber": "(215)536-6908",
    "geo": {
      "latitude": 40.422806,
      "longitude": -75.34672
    },
    "id": "39119",
    "name": "Quakertown Mitsubishi",
    "telephone": "(215)536-1009",
    "url": "www.peruzziofquakertown.com"
  },
  {
    "address": {
      "addressCountry": "United States",
      "addressLocality": "San Luis Obispo",
      "addressRegion": "CA",
      "postalCode": "93401",
      "streetAddress": "1219 Monterey Street"
    },
    "faxNumber": "(805)543-7962",
    "geo": {
      "latitude": 35.283623,
      "longitude": -120.658264
    },
    "id": "05443",
    "name": "Smith Mitsubishi",
    "telephone": "(805)543-0832",
    "url": "www.smithmitsubishi.com"
  },
  {
    "address": {
      "addressCountry": "United States",
      "addressLocality": "Salinas",
      "addressRegion": "CA",
      "postalCode": "93907",
      "streetAddress": "151 Auto Center Circle"
    },
    "faxNumber": "(831)444-8900",
    "geo": {
      "latitude": 36.720913,
      "longitude": -121.663185
    },
    "id": "05441",
    "name": "Salinas Mitsubishi",
    "telephone": "(831)444-9400",
    "url": "www.salinasmitsubishi.com"
  },
  {
    "address": {
      "addressCountry": "United States",
      "addressLocality": "Byron",
      "addressRegion": "GA",
      "postalCode": "31008",
      "streetAddress": "233 Chapman Road"
    },
    "faxNumber": "(478)956-4057",
    "geo": {
      "latitude": 32.66529,
      "longitude": -83.745
    },
    "id": "11153",
    "name": "Jeff Smith Mitsubishi",
    "telephone": "(478)956-5000",
    "url": "www.jeffsmithmitsubishi.com"
  },
  {
    "address": {
      "addressCountry": "United States",
      "addressLocality": "Walpole",
      "addressRegion": "MA",
      "postalCode": "02081",
      "streetAddress": "575 Boston Providence Hwy."
    },
    "faxNumber": "(508)660-7702",
    "geo": {
      "latitude": 42.148087,
      "longitude": -71.21534
    },
    "id": "20067",
    "name": "Walpole Mitsubishi",
    "telephone": "(508)660-7000",
    "url": "www.walpolemitsubishi.com"
  },
  {
    "address": {
      "addressCountry": "United States",
      "addressLocality": "Union City",
      "addressRegion": "GA",
      "postalCode": "30291",
      "streetAddress": "4000 Jonesboro Road"
    },
    "faxNumber": "(770)969-8073",
    "geo": {
      "latitude": 33.564552,
      "longitude": -84.520164
    },
    "id": "11133",
    "name": "Don Jackson Mitsubishi",
    "telephone": "(770)969-8003",
    "url": "www.donjacksonmitsubishi.com"
  },
  {
    "address": {
      "addressCountry": "United States",
      "addressLocality": "El Paso",
      "addressRegion": "TX",
      "postalCode": "79925",
      "streetAddress": "1145 Magruder"
    },
    "faxNumber": "(915)782-1639",
    "geo": {
      "latitude": 31.783415,
      "longitude": -106.416176
    },
    "id": "44187",
    "name": "Viva Mitsubishi",
    "telephone": "(915)782-1600",
    "url": "www.vivamitsubishi.com"
  },
  {
    "address": {
      "addressCountry": "United States",
      "addressLocality": "Marion",
      "addressRegion": "IL",
      "postalCode": "62959-7528",
      "streetAddress": "3209 West Deyoung"
    },
    "faxNumber": "(618)997-6303",
    "geo": {
      "latitude": 37.74484,
      "longitude": -88.98498
    },
    "id": "15063",
    "name": "Marion Mitsubishi",
    "telephone": "(618)969-8692",
    "url": "www.marionmitsubishi.com"
  },
  {
    "address": {
      "addressCountry": "United States",
      "addressLocality": "Columbus",
      "addressRegion": "OH",
      "postalCode": "43235",
      "streetAddress": "8600 N. High Street"
    },
    "faxNumber": "(614)842-4116",
    "geo": {
      "latitude": 40.140404,
      "longitude": -83.01728
    },
    "id": "36074",
    "name": "Columbus Mitsubishi North",
    "telephone": "(614)436-2001",
    "url": "www.columbusmitsu.com"
  },
  {
    "address": {
      "addressCountry": "United States",
      "addressLocality": "Milwaukie",
      "addressRegion": "OR",
      "postalCode": "97267",
      "streetAddress": "18500 Se Mcloughlin Blvd"
    },
    "faxNumber": "(503)513-4832",
    "geo": {
      "latitude": 45.388847,
      "longitude": -122.611084
    },
    "id": "38032",
    "name": "Gladstone Mitsubishi",
    "telephone": "(503)513-6600",
    "url": "www.gladstonemitsubishi.com"
  },
  {
    "address": {
      "addressCountry": "United States",
      "addressLocality": "Hurst",
      "addressRegion": "TX",
      "postalCode": "76053",
      "streetAddress": "240 Ne Loop 820"
    },
    "faxNumber": "(817)590-9472",
    "geo": {
      "latitude": 32.81368,
      "longitude": -97.20717
    },
    "id": "44223",
    "name": "Hurst Autoplex Mitsubishi",
    "telephone": "(817)595-7332",
    "url": "www.hurstautoplex.com"
  },
  {
    "address": {
      "addressCountry": "United States",
      "addressLocality": "Melbourne",
      "addressRegion": "FL",
      "postalCode": "32901-4214",
      "streetAddress": "821 W. New Haven Avenue"
    },
    "faxNumber": "(321)724-0902",
    "geo": {
      "latitude": 28.078646,
      "longitude": -80.63554
    },
    "id": "10024",
    "name": "Coastal Mitsubishi-Fl",
    "telephone": "(321)727-2400",
    "url": "www.coastalmitsu.com"
  },
  {
    "address": {
      "addressCountry": "United States",
      "addressLocality": "Merrillville",
      "addressRegion": "IN",
      "postalCode": "46410-0000",
      "streetAddress": "1000 W. U.S. Hwy 30"
    },
    "faxNumber": "(219)738-3784",
    "geo": {
      "latitude": 41.4713,
      "longitude": -87.34832
    },
    "id": "16028",
    "name": "Shaffer Mitsubishi",
    "telephone": "(219)736-2277",
    "url": "www.shaffermitsubishi.com/"
  },
  {
    "address": {
      "addressCountry": "United States",
      "addressLocality": "Punta Gorda",
      "addressRegion": "FL",
      "postalCode": "33950",
      "streetAddress": "1603 Tamiami Trail"
    },
    "faxNumber": "(941)575-6718",
    "geo": {
      "latitude": 26.92317,
      "longitude": -82.047424
    },
    "id": "10310",
    "name": "Palm Mitsubishi",
    "telephone": "(941)639-1155",
    "url": "www.palmmitsubishi.com"
  },
  {
    "address": {
      "addressCountry": "United States",
      "addressLocality": "Springfield",
      "addressRegion": "PA",
      "postalCode": "19064",
      "streetAddress": "313 Baltimore Pike"
    },
    "faxNumber": "(484)842-1131",
    "geo": {
      "latitude": 39.922157,
      "longitude": -75.31929
    },
    "id": "39124",
    "name": "Springfield Mitsubishi Pa",
    "telephone": "(484)574-8434",
    "url": "www.phillydrive.com"
  },
  {
    "address": {
      "addressCountry": "United States",
      "addressLocality": "Lancaster",
      "addressRegion": "PA",
      "postalCode": "17603",
      "streetAddress": "1009 N. Prince Street"
    },
    "faxNumber": "(717)392-5727",
    "geo": {
      "latitude": 40.0539,
      "longitude": -76.310555
    },
    "id": "39125",
    "name": "Lancaster Mitsubishi",
    "telephone": "(717)295-5000",
    "url": "www.lancastermitsubishi.net/"
  },
  {
    "address": {
      "addressCountry": "United States",
      "addressLocality": "Oxford",
      "addressRegion": "PA",
      "postalCode": "19363",
      "streetAddress": "2158 Baltimore Pike"
    },
    "faxNumber": "(610)932-4944",
    "geo": {
      "latitude": 39.77452,
      "longitude": -75.98478
    },
    "id": "39122",
    "name": "Jeff D'ambrosio Of Oxfrd Mitsubishi",
    "telephone": "(610)932-4646",
    "url": "www.mitsubishiofoxford.com"
  },
  {
    "address": {
      "addressCountry": "United States",
      "addressLocality": "East Stroudsburg",
      "addressRegion": "PA",
      "postalCode": "18301",
      "streetAddress": "1752 Paradise Trl"
    },
    "faxNumber": "(570)421-8150",
    "geo": {
      "latitude": 41.02103,
      "longitude": -75.18482
    },
    "id": "39123",
    "name": "Haltermans Mitsubishi",
    "telephone": "(570)421-5678",
    "url": "www.haltermansmitsubishi.com"
  },
  {
    "address": {
      "addressCountry": "United States",
      "addressLocality": "Shreveport",
      "addressRegion": "LA",
      "postalCode": "71105",
      "streetAddress": "8748 Quimper Place"
    },
    "faxNumber": "(318)524-3268",
    "geo": {
      "latitude": 32.422237,
      "longitude": -93.723946
    },
    "id": "19038",
    "name": "Orr Shreveport Mitsubishi",
    "telephone": "(318)798-7350",
    "url": "www.orrmitsubishi.com"
  },
  {
    "address": {
      "addressCountry": "United States",
      "addressLocality": "Harvey",
      "addressRegion": "LA",
      "postalCode": "70058",
      "streetAddress": "1712 Westbank Expressway"
    },
    "faxNumber": "(504)293-3164",
    "geo": {
      "latitude": 29.902027,
      "longitude": -90.068565
    },
    "id": "19039",
    "name": "Rainbow Mitsubishi",
    "telephone": "(504)367-1712",
    "url": null
  },
  {
    "address": {
      "addressCountry": "United States",
      "addressLocality": "Albuquerque",
      "addressRegion": "NM",
      "postalCode": "87114",
      "streetAddress": "9733 Coors Blvd."
    },
    "faxNumber": "(970)692-5484",
    "geo": {
      "latitude": 35.189434,
      "longitude": -106.65933
    },
    "id": "33029",
    "name": "Casa Mitsubishi",
    "telephone": "(505)897-8400",
    "url": "www.casawestmitsubishi.com"
  },
  {
    "address": {
      "addressCountry": "United States",
      "addressLocality": "Larchmont",
      "addressRegion": "NY",
      "postalCode": "10538",
      "streetAddress": "2020 Boston Post Road"
    },
    "faxNumber": "(914)341-1640",
    "geo": {
      "latitude": 40.931416,
      "longitude": -73.74973
    },
    "id": "35176",
    "name": "Victory Mitsubishi",
    "telephone": "(914)315-1550",
    "url": "www.victorymitsubishicars.com"
  },
  {
    "address": {
      "addressCountry": "United States",
      "addressLocality": "Caribou",
      "addressRegion": "ME",
      "postalCode": "04736",
      "streetAddress": "16 Access Highway"
    },
    "faxNumber": "(207)498-6510",
    "geo": {
      "latitude": 46.871387,
      "longitude": -67.99865
    },
    "id": "22015",
    "name": "Griffeth Mitsubishi",
    "telephone": "(207)496-3111",
    "url": "www.griffethmitsubishi.com"
  },
  {
    "address": {
      "addressCountry": "United States",
      "addressLocality": "Bradenton",
      "addressRegion": "FL",
      "postalCode": "34208",
      "streetAddress": "2600 First Street"
    },
    "faxNumber": "(941)748-0893",
    "geo": {
      "latitude": 27.476748,
      "longitude": -82.56305
    },
    "id": "10284",
    "name": "Firkins Mitsubishi",
    "telephone": "(941)748-6510",
    "url": "www.firkinsmitsubishi.com"
  },
  {
    "address": {
      "addressCountry": "United States",
      "addressLocality": "Fairfield",
      "addressRegion": "CA",
      "postalCode": "94533",
      "streetAddress": "2775 Auto Mall Parkway"
    },
    "faxNumber": "(707)402-5766",
    "geo": {
      "latitude": 38.242985,
      "longitude": -122.08217
    },
    "id": "05448",
    "name": "Momentum Mitsubishi",
    "telephone": "(707)402-5700",
    "url": "www.momentummitsubishi.com"
  },
  {
    "address": {
      "addressCountry": "United States",
      "addressLocality": "North Huntingdon",
      "addressRegion": "PA",
      "postalCode": "15642",
      "streetAddress": "13339 Route 30"
    },
    "faxNumber": "(724)861-5180",
    "geo": {
      "latitude": 40.3424,
      "longitude": -79.76007
    },
    "id": "39129",
    "name": "Jim Shorkey Mitsubishi-N.huntingdon",
    "telephone": "(724)863-0600",
    "url": "www.jimshorkeymitsubishi.com"
  },
  {
    "address": {
      "addressCountry": "United States",
      "addressLocality": "Indiana",
      "addressRegion": "PA",
      "postalCode": "15701-2061",
      "streetAddress": "363 North 4Th Street"
    },
    "faxNumber": "(724)349-0660",
    "geo": {
      "latitude": 40.62854,
      "longitude": -79.14556
    },
    "id": "39071",
    "name": "Colonial Mitsubishi-Pa",
    "telephone": "(724)349-5600",
    "url": "www.colonialcarsmitsubishi.com"
  },
  {
    "address": {
      "addressCountry": "United States",
      "addressLocality": "Bakersfield",
      "addressRegion": "CA",
      "postalCode": "93313",
      "streetAddress": "4600 Wible Road"
    },
    "faxNumber": "(661)617-2308",
    "geo": {
      "latitude": 35.31223,
      "longitude": -119.0389
    },
    "id": "05086",
    "name": "Bakersfield Mitsubishi",
    "telephone": "(661)398-9422",
    "url": "www.bakersfieldmitsubishi.com"
  },
  {
    "address": {
      "addressCountry": "United States",
      "addressLocality": "Webster",
      "addressRegion": "NY",
      "postalCode": "14580",
      "streetAddress": "765 Ridge Road"
    },
    "faxNumber": "(585)671-3368",
    "geo": {
      "latitude": 43.204365,
      "longitude": -77.48052
    },
    "id": "35158",
    "name": "Marina Mitsubishi",
    "telephone": "(585)671-3000",
    "url": "www.marinamitsubishi.com"
  },
  {
    "address": {
      "addressCountry": "United States",
      "addressLocality": "Kirkwood",
      "addressRegion": "MO",
      "postalCode": "63122-1309",
      "streetAddress": "10760 Manchester"
    },
    "faxNumber": "(314)965-2028",
    "geo": {
      "latitude": 38.600243,
      "longitude": -90.40536
    },
    "id": "25001",
    "name": "Chris Auffenberg Krkwd Mitsubishi",
    "telephone": "(314)965-5111",
    "url": "www.kirkwoodmitsubishi.com"
  },
  {
    "address": {
      "addressCountry": "United States",
      "addressLocality": "Fishers",
      "addressRegion": "IN",
      "postalCode": "46038",
      "streetAddress": "13927 Trade Center Dr"
    },
    "faxNumber": "(317)774-2388",
    "geo": {
      "latitude": 39.990776,
      "longitude": -86.00536
    },
    "id": "16046",
    "name": "Andy Mohr Mitsubishi",
    "telephone": "(317)774-2400",
    "url": "www.andymohrmitsubishi.com"
  },
  {
    "address": {
      "addressCountry": "United States",
      "addressLocality": "Indianapolis",
      "addressRegion": "IN",
      "postalCode": "46219",
      "streetAddress": "1300 N. Shadeland Avenue"
    },
    "faxNumber": "(317)354-2259",
    "geo": {
      "latitude": 39.78576,
      "longitude": -86.04542
    },
    "id": "16047",
    "name": "Ray Skillman Shadeland Mitsubishi",
    "telephone": "(317)352-9500",
    "url": "www.rayskillmanshadelandmitsubishi.com"
  },
  {
    "address": {
      "addressCountry": "United States",
      "addressLocality": "Bay City",
      "addressRegion": "MI",
      "postalCode": "48706-3395",
      "streetAddress": "1242 South Euclid Avenue"
    },
    "faxNumber": "(989)684-5113",
    "geo": {
      "latitude": 43.587944,
      "longitude": -83.91558
    },
    "id": "23057",
    "name": "Showcase Mitsubishi",
    "telephone": "(866)648-7848",
    "url": "www.showcasemitsubishi.com"
  },
  {
    "address": {
      "addressCountry": "United States",
      "addressLocality": "Ann Arbor",
      "addressRegion": "MI",
      "postalCode": "48106",
      "streetAddress": "3975 Jackson Road"
    },
    "faxNumber": "(734)663-5460",
    "geo": {
      "latitude": 42.284912,
      "longitude": -83.80857
    },
    "id": "23056",
    "name": "Ann Arbor Mitsubishi",
    "telephone": "(734)663-7770",
    "url": "www.annarbormitsubishi.com"
  },
  {
    "address": {
      "addressCountry": "United States",
      "addressLocality": "Indianapolis",
      "addressRegion": "IN",
      "postalCode": "46254-0017",
      "streetAddress": "5155 Pike Plaza Road"
    },
    "faxNumber": "(317)298-6357",
    "geo": {
      "latitude": 39.83228,
      "longitude": -86.24883
    },
    "id": "16042",
    "name": "Ray Skillman Westside Mitsubishi",
    "telephone": "(317)293-8060",
    "url": "www.rayskillmanmitsubishi.com"
  },
  {
    "address": {
      "addressCountry": "United States",
      "addressLocality": "Evansville",
      "addressRegion": "IN",
      "postalCode": "47715",
      "streetAddress": "5511 East Indiana Street"
    },
    "faxNumber": "(812)437-6938",
    "geo": {
      "latitude": 37.977573,
      "longitude": -87.48475
    },
    "id": "16043",
    "name": "Expressway Mitsubishi",
    "telephone": "(812)437-9700",
    "url": "www.expresswaymitsubishi.com"
  },
  {
    "address": {
      "addressCountry": "United States",
      "addressLocality": "Metairie",
      "addressRegion": "LA",
      "postalCode": "70003-6852",
      "streetAddress": "8213-8701 Airline Drive"
    },
    "faxNumber": "(504)464-7592",
    "geo": {
      "latitude": 29.978678,
      "longitude": -90.22463
    },
    "id": "19003",
    "name": "Bryan Mitsubishi",
    "telephone": "(504)466-6100",
    "url": "www.bryanmitsubishi.com"
  },
  {
    "address": {
      "addressCountry": "United States",
      "addressLocality": "Bowling Green",
      "addressRegion": "KY",
      "postalCode": "42104",
      "streetAddress": "2201 Scottsville Road"
    },
    "faxNumber": "(270)796-8910",
    "geo": {
      "latitude": 36.957718,
      "longitude": -86.4287
    },
    "id": "18025",
    "name": "Bowling Green Mitsubishi",
    "telephone": "(270)842-6323",
    "url": "www.bowlinggreenmitsubishi.com"
  },
  {
    "address": {
      "addressCountry": "United States",
      "addressLocality": "Wantagh",
      "addressRegion": "NY",
      "postalCode": "11793",
      "streetAddress": "3460 Sunrise Highway"
    },
    "faxNumber": "(516)785-4827",
    "geo": {
      "latitude": 40.67316,
      "longitude": -73.50398
    },
    "id": "35173",
    "name": "Wantagh Mitsubishi",
    "telephone": "(516)785-4300",
    "url": "www.wantaghmitsu.com"
  },
  {
    "address": {
      "addressCountry": "United States",
      "addressLocality": "Paducah",
      "addressRegion": "KY",
      "postalCode": "42003-2143",
      "streetAddress": "2121 Irvin Cobb Drive"
    },
    "faxNumber": "(270)408-6490",
    "geo": {
      "latitude": 37.05741,
      "longitude": -88.58721
    },
    "id": "18020",
    "name": "Mike Smith Mitsubishi-Ky",
    "telephone": "(270)442-5461",
    "url": "www.mikesmithmitsubishi.com"
  },
  {
    "address": {
      "addressCountry": "United States",
      "addressLocality": "Albany",
      "addressRegion": "NY",
      "postalCode": "12205",
      "streetAddress": "1673 Central Avenue"
    },
    "faxNumber": "(518)690-2110",
    "geo": {
      "latitude": 42.72254,
      "longitude": -73.8385
    },
    "id": "35171",
    "name": "Goldstein Mitsubishi Albany",
    "telephone": "(518)690-2500",
    "url": "www.goldsteinmitsubishialbany.com"
  },
  {
    "address": {
      "addressCountry": "United States",
      "addressLocality": "City Of Industry",
      "addressRegion": "CA",
      "postalCode": "91748",
      "streetAddress": "17665 Castleton Street"
    },
    "faxNumber": "(626)964-4141",
    "geo": {
      "latitude": 33.99307,
      "longitude": -117.918015
    },
    "id": "05377",
    "name": "Puente Hills Mitsubishi",
    "telephone": "(626)964-5111",
    "url": "www.puentehillsmitsubishi.com"
  },
  {
    "address": {
      "addressCountry": "United States",
      "addressLocality": "Eugene",
      "addressRegion": "OR",
      "postalCode": "97401",
      "streetAddress": "380 Goodpasture Island Road"
    },
    "faxNumber": "(541)342-5549",
    "geo": {
      "latitude": 44.07436,
      "longitude": -123.10814
    },
    "id": "38028",
    "name": "Eugene Mitsubishi",
    "telephone": "(541)342-6161",
    "url": "www.eugenemitsubishi.com"
  },
  {
    "address": {
      "addressCountry": "United States",
      "addressLocality": "Anaheim",
      "addressRegion": "CA",
      "postalCode": "92806",
      "streetAddress": "1300 South Auto Center Drive"
    },
    "faxNumber": "(714)533-2364",
    "geo": {
      "latitude": 33.81554,
      "longitude": -117.87368
    },
    "id": "05371",
    "name": "Anaheim Mitsubishi",
    "telephone": "(714)533-2200",
    "url": "www.anaheimmitsubishi.com"
  },
  {
    "address": {
      "addressCountry": "United States",
      "addressLocality": "Beckley",
      "addressRegion": "WV",
      "postalCode": "25801",
      "streetAddress": "615 North Eisenhower Drive"
    },
    "faxNumber": "(304)256-7421",
    "geo": {
      "latitude": 37.792294,
      "longitude": -81.17259
    },
    "id": "50016",
    "name": "Mountaineer Mitsubishi",
    "telephone": "(304)256-7400",
    "url": "www.mountaineermitsubishiwv.com"
  },
  {
    "address": {
      "addressCountry": "United States",
      "addressLocality": "St. Albans",
      "addressRegion": "WV",
      "postalCode": "25177",
      "streetAddress": "7010 Maccorkle Ave. S.W."
    },
    "faxNumber": "(304)721-8332",
    "geo": {
      "latitude": 38.37688,
      "longitude": -81.78525
    },
    "id": "50015",
    "name": "Charleston Mitsubishi",
    "telephone": "(304)721-8316",
    "url": "www.charlestonmitsubishi.net"
  },
  {
    "address": {
      "addressCountry": "United States",
      "addressLocality": "Princeton",
      "addressRegion": "WV",
      "postalCode": "24740",
      "streetAddress": "690 Oakvale Road"
    },
    "faxNumber": "(304)425-4437",
    "geo": {
      "latitude": 37.362843,
      "longitude": -81.06033
    },
    "id": "50014",
    "name": "Pantili Mitsubishi",
    "telephone": "(304)431-2886",
    "url": "www.pantilimitsubishi.com/"
  },
  {
    "address": {
      "addressCountry": "United States",
      "addressLocality": "Memphis",
      "addressRegion": "TN",
      "postalCode": "38128",
      "streetAddress": "1870 Covington Pike"
    },
    "faxNumber": "(901)373-2024",
    "geo": {
      "latitude": 35.17648,
      "longitude": -89.89674
    },
    "id": "43004",
    "name": "Gossett Mitsubishi",
    "telephone": "(901)388-8989",
    "url": "www.memphismitsubishi.com"
  },
  {
    "address": {
      "addressCountry": "United States",
      "addressLocality": "Johnson City",
      "addressRegion": "TN",
      "postalCode": "37601",
      "streetAddress": "3101 E. Oakland Avenue"
    },
    "faxNumber": "(423)952-0220",
    "geo": {
      "latitude": 36.35988,
      "longitude": -82.38617
    },
    "id": "43009",
    "name": "Wallace Mitsubishi Johnson City",
    "telephone": "(423)952-0888",
    "url": "www.wallacemitsubishijohnsoncity.com"
  },
  {
    "address": {
      "addressCountry": "United States",
      "addressLocality": "Wilmington",
      "addressRegion": "MA",
      "postalCode": "01887",
      "streetAddress": "580 Main Street"
    },
    "faxNumber": "(978)657-0649",
    "geo": {
      "latitude": 42.54276,
      "longitude": -71.1683
    },
    "id": "20068",
    "name": "Cornerstone Mitsubishi",
    "telephone": "(978)657-3939",
    "url": "www.cornerstonemitsubishi.com/"
  },
  {
    "address": {
      "addressCountry": "United States",
      "addressLocality": "Libertyville",
      "addressRegion": "IL",
      "postalCode": "60048-3716",
      "streetAddress": "1119 S. Milwaukee Avenue"
    },
    "faxNumber": "(847)816-6662",
    "geo": {
      "latitude": 42.267746,
      "longitude": -87.9501
    },
    "id": "15079",
    "name": "Libertyville Mitsubishi",
    "telephone": "(847)816-6660",
    "url": "www.libertyvillemitsubishi.com"
  },
  {
    "address": {
      "addressCountry": "United States",
      "addressLocality": "San Antonio",
      "addressRegion": "TX",
      "postalCode": "78211",
      "streetAddress": "8821 I.H. 35 South"
    },
    "faxNumber": "(210)821-1601",
    "geo": {
      "latitude": 29.338997,
      "longitude": -98.56329
    },
    "id": "44221",
    "name": "Lone Star Mitsubishi",
    "telephone": "(210)821-1600",
    "url": "www.lonestarmitsubishi.net"
  },
  {
    "address": {
      "addressCountry": "United States",
      "addressLocality": "Kalamazoo",
      "addressRegion": "MI",
      "postalCode": "49008-1427",
      "streetAddress": "4201 Stadium Drive"
    },
    "faxNumber": "(269)375-2058",
    "geo": {
      "latitude": 42.27065,
      "longitude": -85.64097
    },
    "id": "23029",
    "name": "Harold Zeigler Mitsubishi",
    "telephone": "(269)375-4500",
    "url": null
  },
  {
    "address": {
      "addressCountry": "United States",
      "addressLocality": "Bedford",
      "addressRegion": "OH",
      "postalCode": "44146",
      "streetAddress": "18300 Rockside Road"
    },
    "faxNumber": "(440)703-1204",
    "geo": {
      "latitude": 41.405106,
      "longitude": -81.5486
    },
    "id": "36077",
    "name": "Bedford Mitsubishi",
    "telephone": "(440)439-0700",
    "url": "www.bedfordmitsubishi.com"
  },
  {
    "address": {
      "addressCountry": "United States",
      "addressLocality": "New London",
      "addressRegion": "CT",
      "postalCode": "06320",
      "streetAddress": "545 Broad Street"
    },
    "faxNumber": "(860)442-1955",
    "geo": {
      "latitude": 41.36539,
      "longitude": -72.12006
    },
    "id": "07058",
    "name": "Secor Mitsubishi",
    "telephone": "(860)442-3232",
    "url": "www.secormitsubishi.com"
  },
  {
    "address": {
      "addressCountry": "United States",
      "addressLocality": "Midland",
      "addressRegion": "TX",
      "postalCode": "79703",
      "streetAddress": "3915 W. Wall Street"
    },
    "faxNumber": "(432)617-3218",
    "geo": {
      "latitude": 31.975704,
      "longitude": -102.116066
    },
    "id": "44225",
    "name": "Basin Mitsubishi",
    "telephone": "(432)218-7853",
    "url": "www.midlandmitsubishi.com"
  },
  {
    "address": {
      "addressCountry": "United States",
      "addressLocality": "Lubbock",
      "addressRegion": "TX",
      "postalCode": "79424",
      "streetAddress": "6540 82Nd Street"
    },
    "faxNumber": "(806)771-5728",
    "geo": {
      "latitude": 33.519756,
      "longitude": -101.95984
    },
    "id": "44224",
    "name": "Reagor-Dykes Mitsubishi Lubbock",
    "telephone": "(806)794-4040",
    "url": "www.reagordykesmitsubishilubbock.com"
  },
  {
    "address": {
      "addressCountry": "United States",
      "addressLocality": "Beaumont",
      "addressRegion": "TX",
      "postalCode": "77706",
      "streetAddress": "3355 Eastex Freeway"
    },
    "faxNumber": "(409)924-6294",
    "geo": {
      "latitude": 30.109064,
      "longitude": -94.13928
    },
    "id": "44227",
    "name": "Kinsel Mitsubishi",
    "telephone": "(409)899-4000",
    "url": "www.kinselmitsubishi.com"
  },
  {
    "address": {
      "addressCountry": "United States",
      "addressLocality": "Amarillo",
      "addressRegion": "TX",
      "postalCode": "79109",
      "streetAddress": "4710 Canyon Drive"
    },
    "faxNumber": "(806)418-8896",
    "geo": {
      "latitude": 35.157616,
      "longitude": -101.87779
    },
    "id": "44226",
    "name": "Reagor-Dykes Mitsubishi Amarillo",
    "telephone": "(806)418-8893",
    "url": "www.reagordykesmitsubishiamarillo.com"
  },
  {
    "address": {
      "addressCountry": "United States",
      "addressLocality": "Burlington",
      "addressRegion": "NC",
      "postalCode": "27215",
      "streetAddress": "2616 Alamance Road"
    },
    "faxNumber": "(336)222-5936",
    "geo": {
      "latitude": 36.06847,
      "longitude": -79.46743
    },
    "id": "28043",
    "name": "Dick Shirley Mitsubishi",
    "telephone": "(336)228-0211",
    "url": "www.dickshirleymitsubishi.com"
  },
  {
    "address": {
      "addressCountry": "United States",
      "addressLocality": "Fort Worth",
      "addressRegion": "TX",
      "postalCode": "76116",
      "streetAddress": "8900 Camp Bowie West"
    },
    "faxNumber": "(817)244-0007",
    "geo": {
      "latitude": 32.72452,
      "longitude": -97.47229
    },
    "id": "44228",
    "name": "Clay Cooley Mitsubishi Ft. Worth",
    "telephone": "(817)244-0000",
    "url": "www.ftworthmitsubishi.claycooley.com"
  },
  {
    "address": {
      "addressCountry": "United States",
      "addressLocality": "Boardman",
      "addressRegion": "OH",
      "postalCode": "44512",
      "streetAddress": "883 Boardman Canfield Rd."
    },
    "faxNumber": "(330)726-0681",
    "geo": {
      "latitude": 41.024536,
      "longitude": -80.687744
    },
    "id": "36056",
    "name": "Boardman Mitsubishi",
    "telephone": "(330)726-2668",
    "url": "www.boardmanmitsubishi.com"
  },
  {
    "address": {
      "addressCountry": "United States",
      "addressLocality": "Philadelphia",
      "addressRegion": "PA",
      "postalCode": "19135",
      "streetAddress": "6101 Frankford Avenue"
    },
    "faxNumber": "(215)533-0945",
    "geo": {
      "latitude": 40.027214,
      "longitude": -75.06445
    },
    "id": "39118",
    "name": "Desimone Mitsubishi",
    "telephone": "(215)744-6400",
    "url": "www.desimonemitsubishi.com"
  },
  {
    "address": {
      "addressCountry": "United States",
      "addressLocality": "Las Cruces",
      "addressRegion": "NM",
      "postalCode": "88005",
      "streetAddress": "1115 S. Valley Drive"
    },
    "faxNumber": "(575)527-3468",
    "geo": {
      "latitude": 32.295162,
      "longitude": -106.78694
    },
    "id": "33023",
    "name": "Sisbarro Mitsubishi",
    "telephone": "(575)524-3561",
    "url": "www.sisbarro-mitsubishi.com"
  },
  {
    "address": {
      "addressCountry": "United States",
      "addressLocality": "Jacksonville",
      "addressRegion": "NC",
      "postalCode": "28546-0000",
      "streetAddress": "312 Western Blvd."
    },
    "faxNumber": "(910)577-7083",
    "geo": {
      "latitude": 34.761658,
      "longitude": -77.38239
    },
    "id": "28044",
    "name": "Don Williamson Mitsubishi",
    "telephone": "(910)353-7700",
    "url": "www.dwmitsubishi.com"
  }
]