[
  {
    "address": {
      "addressCountry": "US",
      "addressLocality": "Greenville",
      "addressRegion": "SC",
      "postalCode": "29607-3818",
      "streetAddress": "2668 Laurens Road"
    },
    "geo": {
      "latitude": "34.82268",
      "longitude": "-82.34191"
    },
    "id": "j5389",
    "name": "Jaguar of Greenville",
    "telephone": "8888003085",
    "url": "www.jaguarofgreenville.net"
  },
  {
    "address": {
      "addressCountry": "US",
      "addressLocality": "Santa Barbara",
      "addressRegion": "CA",
      "postalCode": "93105-4018",
      "streetAddress": "401 S Hope Ave"
    },
    "geo": {
      "latitude": "34.43412",
      "longitude": "-119.74753"
    },
    "id": "j5577",
    "name": "Jaguar Santa Barbara",
    "telephone": "8883595532",
    "url": "www.jaguarsantabarbara.net"
  },
  {
    "address": {
      "addressCountry": "US",
      "addressLocality": "Livermore",
      "addressRegion": "CA",
      "postalCode": "94551-9616",
      "streetAddress": "3500 Las Positas Rd"
    },
    "geo": {
      "latitude": "37.70117",
      "longitude": "-121.75793"
    },
    "id": "j5784",
    "name": "Jaguar Livermore",
    "telephone": "8774038871",
    "url": "www.jaguarlivermore.net"
  },
  {
    "address": {
      "addressCountry": "US",
      "addressLocality": "Getzville",
      "addressRegion": "NY",
      "postalCode": "14068-1201",
      "streetAddress": "10 Campbell Blvd"
    },
    "geo": {
      "latitude": "43.01723",
      "longitude": "-78.76808"
    },
    "id": "j5701",
    "name": "West-Herr Jaguar",
    "telephone": "8885515031",
    "url": "www.westherrjaguar.net"
  },
  {
    "address": {
      "addressCountry": "US",
      "addressLocality": "Southampton",
      "addressRegion": "NY",
      "postalCode": "11968-3001",
      "streetAddress": "355 Hampton Rd"
    },
    "geo": {
      "latitude": "40.89264",
      "longitude": "-72.37925"
    },
    "id": "j5332",
    "name": "Jaguar Southampton",
    "telephone": "8778102397",
    "url": "www.jaguarsouthampton.com"
  },
  {
    "address": {
      "addressCountry": "US",
      "addressLocality": "Sudbury",
      "addressRegion": "MA",
      "postalCode": "01776-2438",
      "streetAddress": "83 Boston Post Rd"
    },
    "geo": {
      "latitude": "42.36305",
      "longitude": "-71.39105"
    },
    "id": "j5301",
    "name": "Jaguar Sudbury",
    "telephone": "8884570891",
    "url": "www.jaguarsudbury.com"
  },
  {
    "address": {
      "addressCountry": "US",
      "addressLocality": "Pasadena",
      "addressRegion": "CA",
      "postalCode": "91105-1823",
      "streetAddress": "337 W Colorado Blvd"
    },
    "geo": {
      "latitude": "34.14567",
      "longitude": "-118.1576"
    },
    "id": "j5537",
    "name": "Rusnak / Pasadena",
    "telephone": "8883780072",
    "url": "www.jaguar.rusnakonline.com"
  },
  {
    "address": {
      "addressCountry": "US",
      "addressLocality": "Cerritos",
      "addressRegion": "CA",
      "postalCode": "90703-8011",
      "streetAddress": "10861 183rd Street"
    },
    "geo": {
      "latitude": "33.8673",
      "longitude": "-118.10311"
    },
    "id": "j5312",
    "name": "Jaguar Cerritos",
    "telephone": "8888101432",
    "url": "www.jaguarcerritos.com"
  },
  {
    "address": {
      "addressCountry": "US",
      "addressLocality": "Corte Madera",
      "addressRegion": "CA",
      "postalCode": "94925-1709",
      "streetAddress": "195 Casa Buena Dr"
    },
    "geo": {
      "latitude": "37.92466",
      "longitude": "-122.51558"
    },
    "id": "j5752",
    "name": "Jaguar Marin",
    "telephone": "8888872154",
    "url": "www.jaguarmarin.com"
  },
  {
    "address": {
      "addressCountry": "US",
      "addressLocality": "Newport Beach",
      "addressRegion": "CA",
      "postalCode": "92660-5912",
      "streetAddress": "1540 Jamboree Rd"
    },
    "geo": {
      "latitude": "33.66661",
      "longitude": "-117.8694"
    },
    "id": "j5628",
    "name": "Jaguar Newport Beach",
    "telephone": "8885523046",
    "url": "www.jaguarnewportbeach.com"
  },
  {
    "address": {
      "addressCountry": "US",
      "addressLocality": "Tucson",
      "addressRegion": "AZ",
      "postalCode": "85705-6022",
      "streetAddress": "4670 N Circuit Rd"
    },
    "geo": {
      "latitude": "32.29029",
      "longitude": "-110.98119"
    },
    "id": "j5741",
    "name": "Royal Jaguar Tucson",
    "telephone": "8883781957",
    "url": "www.royaljaguartucson.com"
  },
  {
    "address": {
      "addressCountry": "US",
      "addressLocality": "Lynnwood",
      "addressRegion": "WA",
      "postalCode": "98036-6940",
      "streetAddress": "19910 Poplar Way"
    },
    "geo": {
      "latitude": "47.8179",
      "longitude": "-122.27814"
    },
    "id": "j5783",
    "name": "Jaguar Seattle",
    "telephone": "8884835405",
    "url": "www.jaguarseattle.com"
  },
  {
    "address": {
      "addressCountry": "US",
      "addressLocality": "New Rochelle",
      "addressRegion": "NY",
      "postalCode": "10801-5317",
      "streetAddress": "1 E Main St"
    },
    "geo": {
      "latitude": "40.92027",
      "longitude": "-73.76482"
    },
    "id": "j5313",
    "name": "Jaguar Larchmont/New Rochelle",
    "telephone": "8669023144",
    "url": "www.jaguarlarchmont.com"
  },
  {
    "address": {
      "addressCountry": "US",
      "addressLocality": "Madison",
      "addressRegion": "NJ",
      "postalCode": "07940-2208",
      "streetAddress": "275 Main St"
    },
    "geo": {
      "latitude": "40.7509",
      "longitude": "-74.40213"
    },
    "id": "j5427",
    "name": "Madison Jaguar",
    "telephone": "8884826856",
    "url": "www.madisonjaguar.com"
  },
  {
    "address": {
      "addressCountry": "US",
      "addressLocality": "Troy",
      "addressRegion": "MI",
      "postalCode": "48084-4617",
      "streetAddress": "1815 Maplelawn Dr"
    },
    "geo": {
      "latitude": "42.55297",
      "longitude": "-83.17401"
    },
    "id": "j5686",
    "name": "Jaguar of Troy",
    "telephone": "8774675961",
    "url": "www.jaguaroftroy.net"
  },
  {
    "address": {
      "addressCountry": "US",
      "addressLocality": "Dayton",
      "addressRegion": "OH",
      "postalCode": "45449-3660",
      "streetAddress": "648 Springboro Pike"
    },
    "geo": {
      "latitude": "39.66151",
      "longitude": "-84.23861"
    },
    "id": "j5762",
    "name": "White-Allen Jaguar",
    "telephone": "8885601991",
    "url": "www.whiteallenjaguar.net"
  },
  {
    "address": {
      "addressCountry": "US",
      "addressLocality": "Atlanta",
      "addressRegion": "GA",
      "postalCode": "30305-2628",
      "streetAddress": "3040 Piedmont Rd NE"
    },
    "geo": {
      "latitude": "33.83806",
      "longitude": "-84.36841"
    },
    "id": "j5618",
    "name": "Hennessy Jaguar",
    "telephone": "8883550784",
    "url": "www.hennessyjaguar.com"
  },
  {
    "address": {
      "addressCountry": "US",
      "addressLocality": "Las Vegas",
      "addressRegion": "NV",
      "postalCode": "89117-2815",
      "streetAddress": "7200 W Sahara Ave"
    },
    "geo": {
      "latitude": "36.14398",
      "longitude": "-115.25078"
    },
    "id": "j5729",
    "name": "Gaudin Jaguar",
    "telephone": "8884320694",
    "url": "www.gaudinjaguar.com"
  },
  {
    "address": {
      "addressCountry": "US",
      "addressLocality": "Creve Coeur",
      "addressRegion": "MO",
      "postalCode": "63141-7002",
      "streetAddress": "11654 Olive Blvd"
    },
    "geo": {
      "latitude": "38.66977",
      "longitude": "-90.44"
    },
    "id": "j5305",
    "name": "Jaguar St. Louis",
    "telephone": "8888621501",
    "url": "www.plazajaguarstlouis.com"
  },
  {
    "address": {
      "addressCountry": "US",
      "addressLocality": "Scarborough",
      "addressRegion": "ME",
      "postalCode": "04074-9704",
      "streetAddress": "371 US Route 1"
    },
    "geo": {
      "latitude": "43.58588",
      "longitude": "-70.35571"
    },
    "id": "j5616",
    "name": "Jaguar Scarborough",
    "telephone": "8883692415",
    "url": "www.jaguarscarborough.com"
  },
  {
    "address": {
      "addressCountry": "US",
      "addressLocality": "Columbia",
      "addressRegion": "SC",
      "postalCode": "29210-5262",
      "streetAddress": "540 Jamil Rd"
    },
    "geo": {
      "latitude": "34.06514",
      "longitude": "-81.14151"
    },
    "id": "j5321",
    "name": "Jaguar Columbia",
    "telephone": "",
    "url": "www.jaguarcolumbia.com"
  },
  {
    "address": {
      "addressCountry": "US",
      "addressLocality": "Cockeysville",
      "addressRegion": "MD",
      "postalCode": "21030-3252",
      "streetAddress": "10260 York Rd"
    },
    "geo": {
      "latitude": "39.47113",
      "longitude": "-76.63941"
    },
    "id": "j5664",
    "name": "Jaguar Hunt Valley",
    "telephone": "8886909315",
    "url": "www.chesapeakejaguar.net"
  },
  {
    "address": {
      "addressCountry": "US",
      "addressLocality": "Columbus",
      "addressRegion": "OH",
      "postalCode": "43213-1313",
      "streetAddress": "401 N Hamilton Rd"
    },
    "geo": {
      "latitude": "39.99216",
      "longitude": "-82.86905"
    },
    "id": "j0349",
    "name": "Byers Imports",
    "telephone": "8888039908",
    "url": "www.byersimportsjaguar.net"
  },
  {
    "address": {
      "addressCountry": "US",
      "addressLocality": "Peoria",
      "addressRegion": "IL",
      "postalCode": "61614-1109",
      "streetAddress": "7300 N Allen Rd"
    },
    "geo": {
      "latitude": "40.7778",
      "longitude": "-89.6312"
    },
    "id": "j5748",
    "name": "Jaguar Peoria",
    "telephone": "8775792539",
    "url": "www.jaguarpeoria.net"
  },
  {
    "address": {
      "addressCountry": "US",
      "addressLocality": "Spokane",
      "addressRegion": "WA",
      "postalCode": "99201-4622",
      "streetAddress": "1310 W 3rd Ave"
    },
    "geo": {
      "latitude": "47.65335",
      "longitude": "-117.4319"
    },
    "id": "j5385",
    "name": "Jaguar Spokane",
    "telephone": "8888144202",
    "url": "www.spokanejaguar.com"
  },
  {
    "address": {
      "addressCountry": "US",
      "addressLocality": "Warren",
      "addressRegion": "OH",
      "postalCode": "44484-2835",
      "streetAddress": "3810 Youngstown Rd SE"
    },
    "geo": {
      "latitude": "41.21734",
      "longitude": "-80.77504"
    },
    "id": "j5719",
    "name": "Toyota Volvo Jaguar of Warren",
    "telephone": "8883927820",
    "url": "www.jaguarofwarren.net"
  },
  {
    "address": {
      "addressCountry": "US",
      "addressLocality": "Huntington",
      "addressRegion": "NY",
      "postalCode": "11743-5611",
      "streetAddress": "1249 E Jericho Tpke"
    },
    "geo": {
      "latitude": "40.83309",
      "longitude": "-73.3612"
    },
    "id": "j5333",
    "name": "Jaguar Huntington",
    "telephone": "8772507798",
    "url": "www.jaguarhuntington.com"
  },
  {
    "address": {
      "addressCountry": "US",
      "addressLocality": "Tinley Park",
      "addressRegion": "IL",
      "postalCode": "60477-1214",
      "streetAddress": "8031 W 159th Street"
    },
    "geo": {
      "latitude": "41.60341",
      "longitude": "-87.81475"
    },
    "id": "j5391",
    "name": "Jaguar Orland Park",
    "telephone": "8775461279",
    "url": "www.jaguarorlandpark.net"
  },
  {
    "address": {
      "addressCountry": "US",
      "addressLocality": "Baton Rouge",
      "addressRegion": "LA",
      "postalCode": "70817-4406",
      "streetAddress": "13934 Airline Hwy"
    },
    "geo": {
      "latitude": "30.36801",
      "longitude": "-91.0278"
    },
    "id": "j5726",
    "name": "Paretti Jaguar of Baton Rouge",
    "telephone": "8883294759",
    "url": "www.parettibatonrouge.com"
  },
  {
    "address": {
      "addressCountry": "US",
      "addressLocality": "Cherry Hill",
      "addressRegion": "NJ",
      "postalCode": "08003-1202",
      "streetAddress": "2000 Route 70 E"
    },
    "geo": {
      "latitude": "39.88315",
      "longitude": "-74.97201"
    },
    "id": "j5544",
    "name": "Cherry Hill Classic Cars",
    "telephone": "8885581749",
    "url": "www.cherryhillclassicjaguar.com"
  },
  {
    "address": {
      "addressCountry": "US",
      "addressLocality": "Elmhurst",
      "addressRegion": "IL",
      "postalCode": "60126-1418",
      "streetAddress": "490 W Lake St"
    },
    "geo": {
      "latitude": "41.91918",
      "longitude": "-87.95526"
    },
    "id": "j1417",
    "name": "Jaguar Elmhurst",
    "telephone": "8669807585",
    "url": "www.jaguarelmhurst.com"
  },
  {
    "address": {
      "addressCountry": "US",
      "addressLocality": "Macomb",
      "addressRegion": "MI",
      "postalCode": "48044-4255",
      "streetAddress": "18979 Hall Rd"
    },
    "geo": {
      "latitude": "42.62877",
      "longitude": "-82.93197"
    },
    "id": "j5525",
    "name": "Jaguar Lakeside",
    "telephone": "8773091272",
    "url": "www.jaguarlakeside.net"
  },
  {
    "address": {
      "addressCountry": "US",
      "addressLocality": "San Juan",
      "addressRegion": "PR",
      "postalCode": "00920",
      "streetAddress": "John F. Kennedy Ave"
    },
    "geo": {
      "latitude": "18.38957",
      "longitude": "-66.05927"
    },
    "id": "j5325",
    "name": "Jaguar San Juan",
    "telephone": "8884806512",
    "url": "www.jaguarsanjuan.com"
  },
  {
    "address": {
      "addressCountry": "US",
      "addressLocality": "Carlsbad",
      "addressRegion": "CA",
      "postalCode": "92008-4428",
      "streetAddress": "5550 Paseo Del Norte"
    },
    "geo": {
      "latitude": "33.13036",
      "longitude": "-117.32401"
    },
    "id": "j5379",
    "name": "Jaguar Carlsbad",
    "telephone": "8669793244",
    "url": "www.carlsbadjaguar.net"
  },
  {
    "address": {
      "addressCountry": "US",
      "addressLocality": "San Diego",
      "addressRegion": "CA",
      "postalCode": "92111-2307",
      "streetAddress": "4525 Convoy St"
    },
    "geo": {
      "latitude": "32.82439",
      "longitude": "-117.15488"
    },
    "id": "j5388",
    "name": "Jaguar San Diego",
    "telephone": "8888963593",
    "url": "www.jaguarsandiego.net"
  },
  {
    "address": {
      "addressCountry": "US",
      "addressLocality": "Portland",
      "addressRegion": "OR",
      "postalCode": "97209-2106",
      "streetAddress": "1638 W Burnside Street"
    },
    "geo": {
      "latitude": "45.5229",
      "longitude": "-122.688"
    },
    "id": "j5416",
    "name": "Monte Shelton Motor Company",
    "telephone": "8888972318",
    "url": "www.monteshelton.com"
  },
  {
    "address": {
      "addressCountry": "US",
      "addressLocality": "Memphis",
      "addressRegion": "TN",
      "postalCode": "38119-8244",
      "streetAddress": "6335 Wheel Cove"
    },
    "geo": {
      "latitude": "35.07108",
      "longitude": "-89.85196"
    },
    "id": "j5630",
    "name": "Jaguar Bluff City",
    "telephone": "8669386374",
    "url": "www.jaguarlandroverbluffcity.com"
  },
  {
    "address": {
      "addressCountry": "US",
      "addressLocality": "Omaha",
      "addressRegion": "NE",
      "postalCode": "68114-2150",
      "streetAddress": "716 N 102nd Street"
    },
    "geo": {
      "latitude": "41.26368",
      "longitude": "-96.05115"
    },
    "id": "j5508",
    "name": "Jaguar Omaha",
    "telephone": "8774695896",
    "url": "www.jaguaromaha.com"
  },
  {
    "address": {
      "addressCountry": "US",
      "addressLocality": "Chattanooga",
      "addressRegion": "TN",
      "postalCode": "37421-1026",
      "streetAddress": "7648 Lee Hwy"
    },
    "geo": {
      "latitude": "35.06167",
      "longitude": "-85.1352"
    },
    "id": "j5772",
    "name": "Jaguar Chattanooga",
    "telephone": "8669796612",
    "url": "www.jaguarchattanooga.net"
  },
  {
    "address": {
      "addressCountry": "US",
      "addressLocality": "Edison",
      "addressRegion": "NJ",
      "postalCode": "08817-4848",
      "streetAddress": "920 US Highway 1"
    },
    "geo": {
      "latitude": "40.51442",
      "longitude": "-74.39577"
    },
    "id": "j5709",
    "name": "Ray Catena Jaguar of Edison",
    "telephone": "8883786790",
    "url": "www.raycatenajaguarofedison.com"
  },
  {
    "address": {
      "addressCountry": "US",
      "addressLocality": "Langhorne",
      "addressRegion": "PA",
      "postalCode": "19047-3042",
      "streetAddress": "1700 E Lincoln Hwy"
    },
    "geo": {
      "latitude": "40.17677",
      "longitude": "-74.9174"
    },
    "id": "j5554",
    "name": "Jaguar Langhorne",
    "telephone": "8665718732",
    "url": "www.reedmantolljaguar.com"
  },
  {
    "address": {
      "addressCountry": "US",
      "addressLocality": "Phoenix",
      "addressRegion": "AZ",
      "postalCode": "85054-6142",
      "streetAddress": "18100 N Scottsdale Rd"
    },
    "geo": {
      "latitude": "33.6519",
      "longitude": "-111.92708"
    },
    "id": "j5786",
    "name": "Jaguar North Scottsdale",
    "telephone": "8883101981",
    "url": "www.jaguarlandrovernorthscottsdale.com"
  },
  {
    "address": {
      "addressCountry": "US",
      "addressLocality": "San Antonio",
      "addressRegion": "TX",
      "postalCode": "78249-2242",
      "streetAddress": "15423 IH 10 West"
    },
    "geo": {
      "latitude": "29.56354",
      "longitude": "-98.6142"
    },
    "id": "j5639",
    "name": "Barrett Jaguar",
    "telephone": "8887458630",
    "url": "www.barrettjaguar.net"
  },
  {
    "address": {
      "addressCountry": "US",
      "addressLocality": "Jacksonville",
      "addressRegion": "FL",
      "postalCode": "32225-2905",
      "streetAddress": "11211 Atlantic Blvd"
    },
    "geo": {
      "latitude": "30.32449",
      "longitude": "-81.51112"
    },
    "id": "j5330",
    "name": "Jaguar Jacksonville",
    "telephone": "8772901873",
    "url": "www.jaguarjacksonville.net"
  },
  {
    "address": {
      "addressCountry": "US",
      "addressLocality": "Houston",
      "addressRegion": "TX",
      "postalCode": "77024-2128",
      "streetAddress": "7025 Old Katy Rd"
    },
    "geo": {
      "latitude": "29.78182",
      "longitude": "-95.4438"
    },
    "id": "j5447",
    "name": "Jaguar Houston Central",
    "telephone": "8772350363",
    "url": "www.jaguarhoustoncentral.net"
  },
  {
    "address": {
      "addressCountry": "US",
      "addressLocality": "Van Nuys",
      "addressRegion": "CA",
      "postalCode": "91406-1347",
      "streetAddress": "15500 Roscoe Blvd"
    },
    "geo": {
      "latitude": "34.22139",
      "longitude": "-118.46979"
    },
    "id": "j5703",
    "name": "Galpin Jaguar",
    "telephone": "8886563649",
    "url": "www.galpinjaguar.net"
  },
  {
    "address": {
      "addressCountry": "US",
      "addressLocality": "Cleveland",
      "addressRegion": "OH",
      "postalCode": "44129-6812",
      "streetAddress": "9600 Brookpark Rd"
    },
    "geo": {
      "latitude": "41.41881",
      "longitude": "-81.75266"
    },
    "id": "j5774",
    "name": "Jaguar Westside",
    "telephone": "8882474171",
    "url": "www.jaguarwestside.net"
  },
  {
    "address": {
      "addressCountry": "US",
      "addressLocality": "Fresno",
      "addressRegion": "CA",
      "postalCode": "93721-2916",
      "streetAddress": "2222 Ventura Ave"
    },
    "geo": {
      "latitude": "36.73183",
      "longitude": "-119.78311"
    },
    "id": "j0022",
    "name": "Haron Jaguar",
    "telephone": "8883867113",
    "url": "www.haronjaguar.net"
  },
  {
    "address": {
      "addressCountry": "US",
      "addressLocality": "Golden Valley",
      "addressRegion": "MN",
      "postalCode": "55426-1305",
      "streetAddress": "8905 Wayzata Blvd"
    },
    "geo": {
      "latitude": "44.97387",
      "longitude": "-93.39511"
    },
    "id": "j0617",
    "name": "Jaguar Minneapolis",
    "telephone": "8882850313",
    "url": "www.jaguarlandroverminneapolis.com"
  },
  {
    "address": {
      "addressCountry": "US",
      "addressLocality": "Greensboro",
      "addressRegion": "NC",
      "postalCode": "27407-2646",
      "streetAddress": "1205 Bridford Pkwy"
    },
    "geo": {
      "latitude": "36.05409",
      "longitude": "-79.90251"
    },
    "id": "j5398",
    "name": "Jaguar Greensboro",
    "telephone": "8887131472",
    "url": "www.flowjaguargreensboro.com"
  },
  {
    "address": {
      "addressCountry": "US",
      "addressLocality": "Novi",
      "addressRegion": "MI",
      "postalCode": "48375-2142",
      "streetAddress": "24295 Haggerty Rd"
    },
    "geo": {
      "latitude": "42.46987",
      "longitude": "-83.43489"
    },
    "id": "j5449",
    "name": "Jaguar of Novi",
    "telephone": "8883214838",
    "url": "www.jaguarofnovi.net"
  },
  {
    "address": {
      "addressCountry": "US",
      "addressLocality": "Riverside",
      "addressRegion": "CA",
      "postalCode": "92504-4101",
      "streetAddress": "8051 Auto Drive"
    },
    "geo": {
      "latitude": "33.92862",
      "longitude": "-117.41303"
    },
    "id": "j5787",
    "name": "Alvarez Jaguar",
    "telephone": "8663256709",
    "url": "www.alvarezjaguar.net"
  },
  {
    "address": {
      "addressCountry": "US",
      "addressLocality": "Orlando",
      "addressRegion": "FL",
      "postalCode": "32839-2431",
      "streetAddress": "4249 Millenia Blvd"
    },
    "geo": {
      "latitude": "28.48874",
      "longitude": "-81.43566"
    },
    "id": "j5387",
    "name": "Jaguar Orlando",
    "telephone": "8776343584",
    "url": "www.jaguaroforlando.com"
  },
  {
    "address": {
      "addressCountry": "US",
      "addressLocality": "Plano",
      "addressRegion": "TX",
      "postalCode": "75093-5608",
      "streetAddress": "4422 W Plano Pkwy"
    },
    "geo": {
      "latitude": "33.01621",
      "longitude": "-96.77933"
    },
    "id": "j5383",
    "name": "Jaguar Plano",
    "telephone": "8775909737",
    "url": "www.planojaguar.com"
  },
  {
    "address": {
      "addressCountry": "US",
      "addressLocality": "Miami",
      "addressRegion": "FL",
      "postalCode": "33169-2104",
      "streetAddress": "20800 NW 2nd Ave"
    },
    "geo": {
      "latitude": "25.9426",
      "longitude": "-80.21307"
    },
    "id": "j5641",
    "name": "Warren Henry Jaguar",
    "telephone": "8883810672",
    "url": "www.warrenhenryjaguar.com"
  },
  {
    "address": {
      "addressCountry": "US",
      "addressLocality": "Willow Grove",
      "addressRegion": "PA",
      "postalCode": "19090-2128",
      "streetAddress": "900 York Rd"
    },
    "geo": {
      "latitude": "40.16078",
      "longitude": "-75.11229"
    },
    "id": "j5683",
    "name": "Jaguar Willow Grove",
    "telephone": "8884231024",
    "url": "www.thegreatbritainsjaguar.com"
  },
  {
    "address": {
      "addressCountry": "US",
      "addressLocality": "Mission Viejo",
      "addressRegion": "CA",
      "postalCode": "92692-3805",
      "streetAddress": "28701 Marguerite Pkwy"
    },
    "geo": {
      "latitude": "33.54598",
      "longitude": "-117.67141"
    },
    "id": "j5758",
    "name": "Jaguar Mission Viejo",
    "telephone": "8882853481",
    "url": "www.jaguarmissionviejo.com"
  },
  {
    "address": {
      "addressCountry": "US",
      "addressLocality": "Palatine",
      "addressRegion": "IL",
      "postalCode": "60067-1837",
      "streetAddress": "1410 W Northwest Hwy"
    },
    "geo": {
      "latitude": "42.12645",
      "longitude": "-88.078"
    },
    "id": "j5455",
    "name": "A. C. Imports, Inc.",
    "telephone": "8886892875",
    "url": "www.acimportsjaguar.net"
  },
  {
    "address": {
      "addressCountry": "US",
      "addressLocality": "Tampa",
      "addressRegion": "FL",
      "postalCode": "33612-3409",
      "streetAddress": "320 E Fletcher Ave"
    },
    "geo": {
      "latitude": "28.06936",
      "longitude": "-82.45665"
    },
    "id": "j5768",
    "name": "Jaguar of Tampa",
    "telephone": "8774666970",
    "url": "www.jaguaroftampa.net"
  },
  {
    "address": {
      "addressCountry": "US",
      "addressLocality": "New York",
      "addressRegion": "NY",
      "postalCode": "10019-3538",
      "streetAddress": "787 11th Ave"
    },
    "geo": {
      "latitude": "40.76806",
      "longitude": "-73.98796"
    },
    "id": "j5725",
    "name": "Manhattan Jaguar/NYC",
    "telephone": "8772928578",
    "url": "www.manhattanjaguar.com"
  },
  {
    "address": {
      "addressCountry": "US",
      "addressLocality": "Tulsa",
      "addressRegion": "OK",
      "postalCode": "74145-4833",
      "streetAddress": "3905 S Memorial Dr"
    },
    "geo": {
      "latitude": "36.10701",
      "longitude": "-95.88597"
    },
    "id": "j5310",
    "name": "Jaguar Tulsa",
    "telephone": "8777416250",
    "url": "www.jaguartulsa.com"
  },
  {
    "address": {
      "addressCountry": "US",
      "addressLocality": "Madison",
      "addressRegion": "WI",
      "postalCode": "53719-1308",
      "streetAddress": "6624 Seybold Rd"
    },
    "geo": {
      "latitude": "43.05169",
      "longitude": "-89.49637"
    },
    "id": "j5540",
    "name": "Jaguar Madison",
    "telephone": "8668732289",
    "url": "www.jaguarlandrovermadison.com"
  },
  {
    "address": {
      "addressCountry": "US",
      "addressLocality": "Schererville",
      "addressRegion": "IN",
      "postalCode": "46375-1313",
      "streetAddress": "1349 Indianapolis Blvd"
    },
    "geo": {
      "latitude": "41.49744",
      "longitude": "-87.47089"
    },
    "id": "j5799",
    "name": "Jaguar Schererville",
    "telephone": "8778132696",
    "url": "www.napletonjaguarschererville.com"
  },
  {
    "address": {
      "addressCountry": "US",
      "addressLocality": "Littleton",
      "addressRegion": "CO",
      "postalCode": "80121-8003",
      "streetAddress": "5500 S Broadway"
    },
    "geo": {
      "latitude": "39.6169",
      "longitude": "-104.98796"
    },
    "id": "j0078",
    "name": "Stevinson Imports, Inc.",
    "telephone": "8883490290",
    "url": "www.stevinsonimportsjaguar.com"
  },
  {
    "address": {
      "addressCountry": "US",
      "addressLocality": "Austin",
      "addressRegion": "TX",
      "postalCode": "78703-5131",
      "streetAddress": "1515 W 5th Street"
    },
    "geo": {
      "latitude": "30.28866",
      "longitude": "-97.76458"
    },
    "id": "j5390",
    "name": "Jaguar Austin",
    "telephone": "8886429174",
    "url": "www.jaguaraustin.com"
  },
  {
    "address": {
      "addressCountry": "US",
      "addressLocality": "Loves Park",
      "addressRegion": "IL",
      "postalCode": "61111-4426",
      "streetAddress": "6600 E Riverside Blvd"
    },
    "geo": {
      "latitude": "42.31866",
      "longitude": "-88.986"
    },
    "id": "j5722",
    "name": "Napleton Auto Werks",
    "telephone": "8882524178",
    "url": "www.napletonjaguarlovespark.com"
  },
  {
    "address": {
      "addressCountry": "US",
      "addressLocality": "Waukesha",
      "addressRegion": "WI",
      "postalCode": "53186-3914",
      "streetAddress": "1901 E Moreland Blvd"
    },
    "geo": {
      "latitude": "43.01628",
      "longitude": "-88.20746"
    },
    "id": "j5534",
    "name": "Jaguar Waukesha",
    "telephone": "8669795204",
    "url": "www.jaguarlandroverwaukesha.com"
  },
  {
    "address": {
      "addressCountry": "US",
      "addressLocality": "San Jose",
      "addressRegion": "CA",
      "postalCode": "95129-1334",
      "streetAddress": "4040 Stevens Creek Blvd"
    },
    "geo": {
      "latitude": "37.32316",
      "longitude": "-121.97256"
    },
    "id": "j0518",
    "name": "San Jose British Motors",
    "telephone": "8883768095",
    "url": "www.sanjosebritishmotorsjaguar.com"
  },
  {
    "address": {
      "addressCountry": "US",
      "addressLocality": "San Francisco",
      "addressRegion": "CA",
      "postalCode": "94109-6911",
      "streetAddress": "901 Van Ness Ave"
    },
    "geo": {
      "latitude": "37.78385",
      "longitude": "-122.42123"
    },
    "id": "j0517",
    "name": "British Motor Car Distributors, Ltd.",
    "telephone": "8883246903",
    "url": "www.britishmotorcar.com"
  },
  {
    "address": {
      "addressCountry": "US",
      "addressLocality": "Peabody",
      "addressRegion": "MA",
      "postalCode": "01960-1315",
      "streetAddress": "247 Newbury St"
    },
    "geo": {
      "latitude": "42.55007",
      "longitude": "70.98238"
    },
    "id": "j5328",
    "name": "Jaguar Peabody",
    "telephone": "8887067792",
    "url": "www.jaguarpeabody.com"
  },
  {
    "address": {
      "addressCountry": "US",
      "addressLocality": "Houston",
      "addressRegion": "TX",
      "postalCode": "77074-1204",
      "streetAddress": "10150 Southwest Fwy"
    },
    "geo": {
      "latitude": "29.66896",
      "longitude": "-95.54984"
    },
    "id": "j5563",
    "name": "Jaguar Southwest Houston",
    "telephone": "8777611104",
    "url": "www.jaguarsouthwesthouston.com"
  },
  {
    "address": {
      "addressCountry": "US",
      "addressLocality": "Hartford",
      "addressRegion": "CT",
      "postalCode": "06120-1619",
      "streetAddress": "133 Leibert Rd"
    },
    "geo": {
      "latitude": "41.7867",
      "longitude": "-72.65551"
    },
    "id": "j5445",
    "name": "Jaguar Hartford",
    "telephone": "8773708408",
    "url": "www.jaguarhartford.net"
  },
  {
    "address": {
      "addressCountry": "US",
      "addressLocality": "Boise",
      "addressRegion": "ID",
      "postalCode": "83709-0772",
      "streetAddress": "7805 Gratz Dr"
    },
    "geo": {
      "latitude": "43.60155",
      "longitude": "-116.27894"
    },
    "id": "j5609",
    "name": "Jaguar Boise",
    "telephone": "8669783570",
    "url": "www.jaguarboise.com"
  },
  {
    "address": {
      "addressCountry": "US",
      "addressLocality": "Shawnee Mission",
      "addressRegion": "KS",
      "postalCode": "66203-3663",
      "streetAddress": "9415 W 65th Street"
    },
    "geo": {
      "latitude": "39.01121",
      "longitude": "-94.69519"
    },
    "id": "j5743",
    "name": "Jaguar Merriam",
    "telephone": "8669381354",
    "url": "www.aristocratjaguar.com"
  },
  {
    "address": {
      "addressCountry": "US",
      "addressLocality": "El Paso",
      "addressRegion": "TX",
      "postalCode": "79925-2215",
      "streetAddress": "1444 Airway Blvd"
    },
    "geo": {
      "latitude": "31.7886",
      "longitude": "-106.3954"
    },
    "id": "j5392",
    "name": "Jaguar El Paso",
    "telephone": "8772149190",
    "url": "www.jaguarelpaso.com"
  },
  {
    "address": {
      "addressCountry": "US",
      "addressLocality": "Louisville",
      "addressRegion": "KY",
      "postalCode": "40207-5141",
      "streetAddress": "4700 Bowling Blvd"
    },
    "geo": {
      "latitude": "38.24993",
      "longitude": "-85.62815"
    },
    "id": "j5794",
    "name": "Jaguar Louisville",
    "telephone": "8668570401",
    "url": "www.jaguarlouisville.net"
  },
  {
    "address": {
      "addressCountry": "US",
      "addressLocality": "Sarasota",
      "addressRegion": "FL",
      "postalCode": "34233-3219",
      "streetAddress": "4821 Clark Rd"
    },
    "geo": {
      "latitude": "27.26913",
      "longitude": "-82.47174"
    },
    "id": "j5691",
    "name": "Jaguar of Sarasota",
    "telephone": "8774660419",
    "url": "www.wildejaguarofsarasota.com"
  },
  {
    "address": {
      "addressCountry": "US",
      "addressLocality": "Seaside",
      "addressRegion": "CA",
      "postalCode": "93955-3603",
      "streetAddress": "1711 Del Monte Blvd"
    },
    "geo": {
      "latitude": "36.6121",
      "longitude": "-121.84757"
    },
    "id": "j5730",
    "name": "Jaguar Monterey",
    "telephone": "8882958037",
    "url": "www.jaguarlandrovermonterey.com"
  },
  {
    "address": {
      "addressCountry": "US",
      "addressLocality": "Wilmington",
      "addressRegion": "DE",
      "postalCode": "19806",
      "streetAddress": "1900 Pennsylvania Ave"
    },
    "geo": {
      "latitude": "39.75587",
      "longitude": "-75.56741"
    },
    "id": "j5696",
    "name": "Union Park Jaguar",
    "telephone": "8773605481",
    "url": "www.unionparkjaguar.com"
  },
  {
    "address": {
      "addressCountry": "US",
      "addressLocality": "Charleston",
      "addressRegion": "SC",
      "postalCode": "29407-7822",
      "streetAddress": "1511 Savannah Hwy"
    },
    "geo": {
      "latitude": "32.78531",
      "longitude": "-80.00443"
    },
    "id": "j5395",
    "name": "Jaguar West Ashley",
    "telephone": "8778399364",
    "url": "www.jaguarwestashley.com"
  },
  {
    "address": {
      "addressCountry": "US",
      "addressLocality": "Oklahoma City",
      "addressRegion": "OK",
      "postalCode": "73103-4922",
      "streetAddress": "1125 N Broadway Ave"
    },
    "geo": {
      "latitude": "35.47966",
      "longitude": "-97.51413"
    },
    "id": "j5790",
    "name": "Jaguar of Oklahoma City",
    "telephone": "8775459439",
    "url": "www.jaguarofoklahomacity.com"
  },
  {
    "address": {
      "addressCountry": "US",
      "addressLocality": "Wayne",
      "addressRegion": "PA",
      "postalCode": "19087-4201",
      "streetAddress": "325 E Lancaster Ave"
    },
    "geo": {
      "latitude": "40.04353",
      "longitude": "-75.37873"
    },
    "id": "j5471",
    "name": "Jaguar Main Line",
    "telephone": "8668775953",
    "url": "www.jaguarmainline.com"
  },
  {
    "address": {
      "addressCountry": "US",
      "addressLocality": "Walnut Creek",
      "addressRegion": "CA",
      "postalCode": "94596-3707",
      "streetAddress": "2103 N Main St"
    },
    "geo": {
      "latitude": "37.92348",
      "longitude": "-122.06207"
    },
    "id": "j5653",
    "name": "Cole European",
    "telephone": "8884243501",
    "url": "www.coleeuropean.com"
  },
  {
    "address": {
      "addressCountry": "US",
      "addressLocality": "Monroeville",
      "addressRegion": "PA",
      "postalCode": "15146-2126",
      "streetAddress": "3780 William Penn Hwy"
    },
    "geo": {
      "latitude": "40.42995",
      "longitude": "-79.76545"
    },
    "id": "j0380",
    "name": "Jaguar Monroeville",
    "telephone": "8886677612",
    "url": "www.jaguarmonroeville.com"
  },
  {
    "address": {
      "addressCountry": "US",
      "addressLocality": "Honolulu",
      "addressRegion": "HI",
      "postalCode": "96813-5504",
      "streetAddress": "744 Ala Moana Blvd"
    },
    "geo": {
      "latitude": "21.29731",
      "longitude": "-157.8594"
    },
    "id": "j5327",
    "name": "Jaguar Honolulu",
    "telephone": "8887101485",
    "url": "www.jaguarhonolulu.com"
  },
  {
    "address": {
      "addressCountry": "US",
      "addressLocality": "Chantilly",
      "addressRegion": "VA",
      "postalCode": "20151-1225",
      "streetAddress": "4120 Auto Park Circle"
    },
    "geo": {
      "latitude": "38.90366",
      "longitude": "-77.4593"
    },
    "id": "j5601",
    "name": "Jaguar Chantilly",
    "telephone": "8669793692",
    "url": "www.jaguarchantilly.com"
  },
  {
    "address": {
      "addressCountry": "US",
      "addressLocality": "Richmond",
      "addressRegion": "VA",
      "postalCode": "23235-4409",
      "streetAddress": "10505 Midlothian Tpke"
    },
    "geo": {
      "latitude": "37.50872",
      "longitude": "-82.67549"
    },
    "id": "j5504",
    "name": "Brown's Jaguar",
    "telephone": "8887950432",
    "url": "www.brownsjaguar.net"
  },
  {
    "address": {
      "addressCountry": "US",
      "addressLocality": "Huntsville",
      "addressRegion": "AL",
      "postalCode": "35816-3142",
      "streetAddress": "3800 University Dr NW"
    },
    "geo": {
      "latitude": "34.73528",
      "longitude": "-86.62451"
    },
    "id": "j5612",
    "name": "Jaguar Huntsville",
    "telephone": "8664352182",
    "url": "www.centuryjaguarhuntsville.com"
  },
  {
    "address": {
      "addressCountry": "US",
      "addressLocality": "Des Moines",
      "addressRegion": "IA",
      "postalCode": "50325-5313",
      "streetAddress": "9800 Hickman Rd"
    },
    "geo": {
      "latitude": "41.61621",
      "longitude": "-93.75353"
    },
    "id": "j5796",
    "name": "Jaguar Des Moines",
    "telephone": "8669063321",
    "url": "www.jaguardesmoines.com"
  },
  {
    "address": {
      "addressCountry": "US",
      "addressLocality": "Charleston",
      "addressRegion": "WV",
      "postalCode": "25309-8248",
      "streetAddress": "7 Dudley Farms Lane"
    },
    "geo": {
      "latitude": "38.32782",
      "longitude": "-81.71217"
    },
    "id": "j5793",
    "name": "Jaguar Charleston",
    "telephone": "8669793961",
    "url": "www.jaguarcharleston.net"
  },
  {
    "address": {
      "addressCountry": "US",
      "addressLocality": "Charlotte",
      "addressRegion": "NC",
      "postalCode": "28217-3647",
      "streetAddress": "400 Tyvola Rd"
    },
    "geo": {
      "latitude": "35.16279",
      "longitude": "-80.88828"
    },
    "id": "j5625",
    "name": "Scott Jaguar",
    "telephone": "8883644055",
    "url": "www.scottjaguar.net"
  },
  {
    "address": {
      "addressCountry": "US",
      "addressLocality": "West Chester",
      "addressRegion": "PA",
      "postalCode": "19382-7754",
      "streetAddress": "1568 West Chester Pike"
    },
    "geo": {
      "latitude": "39.96591",
      "longitude": "-75.52478"
    },
    "id": "j5605",
    "name": "Jaguar West Chester",
    "telephone": "8778031741",
    "url": "www.jaguarwestchester.net"
  },
  {
    "address": {
      "addressCountry": "US",
      "addressLocality": "Annapolis",
      "addressRegion": "MD",
      "postalCode": "21409-5407",
      "streetAddress": "101 Ferguson Rd"
    },
    "geo": {
      "latitude": "39.01864",
      "longitude": "-76.48062"
    },
    "id": "j5317",
    "name": "Jaguar Annapolis",
    "telephone": "8776980150",
    "url": "www.jaguarlandroverannapolis.com"
  },
  {
    "address": {
      "addressCountry": "US",
      "addressLocality": "Houston",
      "addressRegion": "TX",
      "postalCode": "77090-4915",
      "streetAddress": "18205 I-45 North"
    },
    "geo": {
      "latitude": "30.02179",
      "longitude": "-95.43903"
    },
    "id": "j5528",
    "name": "Jaguar Houston North",
    "telephone": "8772350584",
    "url": "www.jaguarhoustonnorth.net"
  },
  {
    "address": {
      "addressCountry": "US",
      "addressLocality": "Metairie",
      "addressRegion": "LA",
      "postalCode": "70002-6820",
      "streetAddress": "3000 Richland Ave"
    },
    "geo": {
      "latitude": "30.00185",
      "longitude": "-90.17429"
    },
    "id": "j0486",
    "name": "Paretti Imports, L.L.C.",
    "telephone": "8882246905",
    "url": "www.parettiimports.com"
  },
  {
    "address": {
      "addressCountry": "US",
      "addressLocality": "Mobile",
      "addressRegion": "AL",
      "postalCode": "36606-3106",
      "streetAddress": "1151 E I65 Service Rd South"
    },
    "geo": {
      "latitude": "30.67018",
      "longitude": "-88.12685"
    },
    "id": "j5713",
    "name": "Jaguar of the Gulf Coast",
    "telephone": "8774671482",
    "url": "www.jaguargulfcoast.com"
  },
  {
    "address": {
      "addressCountry": "US",
      "addressLocality": "Chicago",
      "addressRegion": "IL",
      "postalCode": "60622-1127",
      "streetAddress": "1924 N Paulina St"
    },
    "geo": {
      "latitude": "41.91726",
      "longitude": "-87.6704"
    },
    "id": "j1459",
    "name": "Howard Orloff Jaguar/Volvo",
    "telephone": "8774358254",
    "url": "www.howardorloffjaguar.com"
  },
  {
    "address": {
      "addressCountry": "US",
      "addressLocality": "Rancho Mirage",
      "addressRegion": "CA",
      "postalCode": "92270-4110",
      "streetAddress": "71387 Highway 111"
    },
    "geo": {
      "latitude": "33.74609",
      "longitude": "-116.41924"
    },
    "id": "j5315",
    "name": "Jaguar Rancho Mirage",
    "telephone": "8772873263",
    "url": "www.jaguarranchomirage.net"
  },
  {
    "address": {
      "addressCountry": "US",
      "addressLocality": "Wilmette",
      "addressRegion": "IL",
      "postalCode": "60091-2518",
      "streetAddress": "721 Green Bay Rd"
    },
    "geo": {
      "latitude": "42.07703",
      "longitude": "-87.70955"
    },
    "id": "j1427",
    "name": "Imperial Motors Jaguar of Wilmette",
    "telephone": "8774638162",
    "url": "www.imperialmotorsjaguarofwilmette.com"
  },
  {
    "address": {
      "addressCountry": "US",
      "addressLocality": "Appleton",
      "addressRegion": "WI",
      "postalCode": "54913-7958",
      "streetAddress": "3030 N Victory Ln"
    },
    "geo": {
      "latitude": "44.29232",
      "longitude": "-88.47194"
    },
    "id": "j5798",
    "name": "Jaguar Fox Valley",
    "telephone": "8772178731",
    "url": "www.jaguarfoxvalley.com"
  },
  {
    "address": {
      "addressCountry": "US",
      "addressLocality": "Fort Myers",
      "addressRegion": "FL",
      "postalCode": "33908-4238",
      "streetAddress": "15875 S Tamiami Trail"
    },
    "geo": {
      "latitude": "26.51212",
      "longitude": "-81.86281"
    },
    "id": "j5763",
    "name": "Jaguar Fort Myers",
    "telephone": "8772178809",
    "url": "www.ftmyersjaguar.com"
  },
  {
    "address": {
      "addressCountry": "US",
      "addressLocality": "North Bethesda",
      "addressRegion": "MD",
      "postalCode": "20852-2797",
      "streetAddress": "11617 Old Georgetown Rd"
    },
    "geo": {
      "latitude": "39.04858",
      "longitude": "-77.11858"
    },
    "id": "j2103",
    "name": "Jaguar Bethesda",
    "telephone": "8774651617",
    "url": "www.jaguarbethesda.net"
  },
  {
    "address": {
      "addressCountry": "US",
      "addressLocality": "Jackson",
      "addressRegion": "MS",
      "postalCode": "39211-4026",
      "streetAddress": "5320 I 55 North"
    },
    "geo": {
      "latitude": "32.37485",
      "longitude": "-90.14785"
    },
    "id": "j5307",
    "name": "Jaguar Jackson",
    "telephone": "8884795091",
    "url": "www.jaguarjackson.com"
  },
  {
    "address": {
      "addressCountry": "US",
      "addressLocality": "Exeter",
      "addressRegion": "NH",
      "postalCode": "03833-4551",
      "streetAddress": "158 Epping Road"
    },
    "geo": {
      "latitude": "42.99522",
      "longitude": "-70.97267"
    },
    "id": "j5580",
    "name": "Jaguar Exeter",
    "telephone": "8669381175",
    "url": "www.jaguarexeter.net"
  },
  {
    "address": {
      "addressCountry": "US",
      "addressLocality": "Bellevue",
      "addressRegion": "WA",
      "postalCode": "98005-2012",
      "streetAddress": "13817 NE 20th Street"
    },
    "geo": {
      "latitude": "47.62788",
      "longitude": "-122.15534"
    },
    "id": "j5776",
    "name": "Jaguar Bellevue",
    "telephone": "8774650624",
    "url": "www.jaguarbellevue.com"
  },
  {
    "address": {
      "addressCountry": "US",
      "addressLocality": "Clarksville",
      "addressRegion": "MD",
      "postalCode": "21029-2201",
      "streetAddress": "12500 New Car Dr"
    },
    "geo": {
      "latitude": "39.201",
      "longitude": "-76.94087"
    },
    "id": "j5586",
    "name": "Jaguar West Columbia",
    "telephone": "8882045386",
    "url": "www.jaguarwestcolumbia.com"
  },
  {
    "address": {
      "addressCountry": "US",
      "addressLocality": "Grand Rapids",
      "addressRegion": "MI",
      "postalCode": "49508-1310",
      "streetAddress": "1010 28th Street SE"
    },
    "geo": {
      "latitude": "42.87468",
      "longitude": "-85.6271"
    },
    "id": "j5792",
    "name": "Jaguar Grand Rapids",
    "telephone": "8772236174",
    "url": "www.jaguarofgrandrapids.net"
  },
  {
    "address": {
      "addressCountry": "US",
      "addressLocality": "Paramus",
      "addressRegion": "NJ",
      "postalCode": "07652-2900",
      "streetAddress": "405 S State Rt 17"
    },
    "geo": {
      "latitude": "40.94822",
      "longitude": "-74.0728"
    },
    "id": "j5302",
    "name": "Jaguar Paramus",
    "telephone": "8884391355",
    "url": "www.jaguarparamus.com"
  },
  {
    "address": {
      "addressCountry": "US",
      "addressLocality": "Harrisburg",
      "addressRegion": "PA",
      "postalCode": "17111-2327",
      "streetAddress": "1030 Highspire Rd"
    },
    "geo": {
      "latitude": "40.23052",
      "longitude": "-76.79816"
    },
    "id": "j5399",
    "name": "Jaguar Harrisburg",
    "telephone": "8888405699",
    "url": "www.jaguarharrisburg.net"
  },
  {
    "address": {
      "addressCountry": "US",
      "addressLocality": "San Jose",
      "addressRegion": "CA",
      "postalCode": "95129-1334",
      "streetAddress": "4040 Stevens Creek Blvd"
    },
    "geo": {
      "latitude": "37.32316",
      "longitude": "-121.97256"
    },
    "id": "j5329",
    "name": "Jaguar San Jose",
    "telephone": "8889270513",
    "url": ""
  },
  {
    "address": {
      "addressCountry": "US",
      "addressLocality": "Dallas",
      "addressRegion": "TX",
      "postalCode": "75209-6320",
      "streetAddress": "5300 Lemmon Ave"
    },
    "geo": {
      "latitude": "32.86045",
      "longitude": "-96.88291"
    },
    "id": "j5394",
    "name": "Jaguar Dallas",
    "telephone": "8777620242",
    "url": "www.jaguardallas.net"
  },
  {
    "address": {
      "addressCountry": "US",
      "addressLocality": "Blue Ash",
      "addressRegion": "OH",
      "postalCode": "45242-6821",
      "streetAddress": "9111 Blue Ash Rd"
    },
    "geo": {
      "latitude": "39.23127",
      "longitude": "-84.35228"
    },
    "id": "j5396",
    "name": "Jaguar Cincinnati",
    "telephone": "8668033356",
    "url": "www.jaguarcincinnati.com"
  },
  {
    "address": {
      "addressCountry": "US",
      "addressLocality": "Allentown",
      "addressRegion": "PA",
      "postalCode": "18104",
      "streetAddress": "5254 W Tilghman St"
    },
    "geo": {
      "latitude": "40.59257",
      "longitude": "-75.54579"
    },
    "id": "j3937",
    "name": "Jaguar Allentown",
    "telephone": "8666172632",
    "url": "www.jaguarallentown.net"
  },
  {
    "address": {
      "addressCountry": "US",
      "addressLocality": "Vienna",
      "addressRegion": "VA",
      "postalCode": "22182-2205",
      "streetAddress": "1592 Spring Hill Rd"
    },
    "geo": {
      "latitude": "38.9273",
      "longitude": "-77.24376"
    },
    "id": "j5490",
    "name": "Jaguar Tysons Corner",
    "telephone": "8884660413",
    "url": "www.rosenthaljaguar.com"
  },
  {
    "address": {
      "addressCountry": "US",
      "addressLocality": "Anaheim",
      "addressRegion": "CA",
      "postalCode": "92807-2022",
      "streetAddress": "5401 E La Palma Ave"
    },
    "geo": {
      "latitude": "33.85971",
      "longitude": "-117.79741"
    },
    "id": "j5308",
    "name": "Jaguar Anaheim Hills",
    "telephone": "8883914802",
    "url": "www.jaguaranaheimhills.com"
  },
  {
    "address": {
      "addressCountry": "US",
      "addressLocality": "Canton",
      "addressRegion": "OH",
      "postalCode": "44703-3138",
      "streetAddress": "1449 Cleveland Ave NW"
    },
    "geo": {
      "latitude": "40.81391",
      "longitude": "-81.37855"
    },
    "id": "j5635",
    "name": "Kempthorn Motors, Inc.",
    "telephone": "8883294755",
    "url": "www.kempthornmotorsjaguar.com"
  },
  {
    "address": {
      "addressCountry": "US",
      "addressLocality": "Virginia Beach",
      "addressRegion": "VA",
      "postalCode": "23452-4200",
      "streetAddress": "2865 Virginia Beach Blvd"
    },
    "geo": {
      "latitude": "36.83414",
      "longitude": "-76.09285"
    },
    "id": "j5454",
    "name": "Jaguar Virginia Beach",
    "telephone": "8884107449",
    "url": "www.checkeredflagjaguar.net"
  },
  {
    "address": {
      "addressCountry": "US",
      "addressLocality": "Santa Monica",
      "addressRegion": "CA",
      "postalCode": "90404-2506",
      "streetAddress": "3020 Santa Monica Blvd"
    },
    "geo": {
      "latitude": "34.03155",
      "longitude": "-118.46021"
    },
    "id": "j5782",
    "name": "Hornburg Jaguar Santa Monica",
    "telephone": "8774299548",
    "url": "www.jaguarsantamonica.com"
  },
  {
    "address": {
      "addressCountry": "US",
      "addressLocality": "Knoxville",
      "addressRegion": "TN",
      "postalCode": "37922-3346",
      "streetAddress": "9735 Kingston Pike"
    },
    "geo": {
      "latitude": "35.90582",
      "longitude": "-84.11049"
    },
    "id": "j5585",
    "name": "Harper Jaguar",
    "telephone": "8883476889",
    "url": "www.harperjaguar.net"
  },
  {
    "address": {
      "addressCountry": "US",
      "addressLocality": "Broomfield",
      "addressRegion": "CO",
      "postalCode": "80020-1679",
      "streetAddress": "125 Alter Street"
    },
    "geo": {
      "latitude": "39.92141",
      "longitude": "-105.09197"
    },
    "id": "j5771",
    "name": "Sill-TerHar Motors, Inc.",
    "telephone": "8883490383",
    "url": "www.sill-terharmotorsjaguar.com"
  },
  {
    "address": {
      "addressCountry": "US",
      "addressLocality": "Colorado Springs",
      "addressRegion": "CO",
      "postalCode": "80905-7007",
      "streetAddress": "565 Automotive Dr"
    },
    "geo": {
      "latitude": "38.8158",
      "longitude": "-104.84109"
    },
    "id": "j5572",
    "name": "Jaguar Colorado Springs",
    "telephone": "8669800968",
    "url": "www.jaguarcs.com"
  },
  {
    "address": {
      "addressCountry": "US",
      "addressLocality": "Naples",
      "addressRegion": "FL",
      "postalCode": "34102-5403",
      "streetAddress": "900 N Tamiami Trail"
    },
    "geo": {
      "latitude": "26.15885",
      "longitude": "-81.79729"
    },
    "id": "j5536",
    "name": "Jaguar Naples",
    "telephone": "8882976876",
    "url": "www.jaguarnaples.net"
  },
  {
    "address": {
      "addressCountry": "US",
      "addressLocality": "Ventura",
      "addressRegion": "CA",
      "postalCode": "93003-7204",
      "streetAddress": "3190 Perkin Ave"
    },
    "geo": {
      "latitude": "34.24478",
      "longitude": "-119.20076"
    },
    "id": "j5386",
    "name": "Jaguar Ventura",
    "telephone": "8884856520",
    "url": "www.jaguarventura.net"
  },
  {
    "address": {
      "addressCountry": "US",
      "addressLocality": "Wichita",
      "addressRegion": "KS",
      "postalCode": "67207-1925",
      "streetAddress": "11212 E Kellogg Dr"
    },
    "geo": {
      "latitude": "37.67893",
      "longitude": "-97.20673"
    },
    "id": "j5692",
    "name": "Jaguar Wichita",
    "telephone": "8883764565",
    "url": "www.scholfieldjaguar.net"
  },
  {
    "address": {
      "addressCountry": "US",
      "addressLocality": "Albuquerque",
      "addressRegion": "NM",
      "postalCode": "87110-7413",
      "streetAddress": "7707 Lomas Blvd NE"
    },
    "geo": {
      "latitude": "35.08704",
      "longitude": "-106.56139"
    },
    "id": "j3201",
    "name": "Melloy Jaguar",
    "telephone": "8884987354",
    "url": "www.melloyjaguar.net"
  },
  {
    "address": {
      "addressCountry": "US",
      "addressLocality": "Naperville",
      "addressRegion": "IL",
      "postalCode": "60540-3906",
      "streetAddress": "1559 W Ogden Ave"
    },
    "geo": {
      "latitude": "41.77025",
      "longitude": "-88.18637"
    },
    "id": "j5767",
    "name": "Jaguar Naperville",
    "telephone": "8883787649",
    "url": "www.jaguarofnaperville.com"
  },
  {
    "address": {
      "addressCountry": "US",
      "addressLocality": "Fort Pierce",
      "addressRegion": "FL",
      "postalCode": "34982-7005",
      "streetAddress": "4771 S US Highway 1"
    },
    "geo": {
      "latitude": "27.37935",
      "longitude": "-80.32592"
    },
    "id": "j5318",
    "name": "Jaguar Treasure Coast",
    "telephone": "8776980250",
    "url": "www.jaguarlandrovertreasurecoast.com"
  },
  {
    "address": {
      "addressCountry": "US",
      "addressLocality": "Irondale",
      "addressRegion": "AL",
      "postalCode": "35210-3447",
      "streetAddress": "3000 Tom Williams Way"
    },
    "geo": {
      "latitude": "33.53599",
      "longitude": "-86.69004"
    },
    "id": "j5322",
    "name": "Jaguar Birmingham",
    "telephone": "8888034454",
    "url": "www.jaguarbirmingham.com"
  },
  {
    "address": {
      "addressCountry": "US",
      "addressLocality": "New York",
      "addressRegion": "NY",
      "postalCode": "10019-3538",
      "streetAddress": "787 11th Ave"
    },
    "geo": {
      "latitude": "40.76806",
      "longitude": "-73.98796"
    },
    "id": "j5331",
    "name": "Jaguar Manhattan",
    "telephone": "8888614606",
    "url": "www.jaguarmanhattan.com"
  },
  {
    "address": {
      "addressCountry": "US",
      "addressLocality": "Sacramento",
      "addressRegion": "CA",
      "postalCode": "95825-1908",
      "streetAddress": "2052 Fulton Ave"
    },
    "geo": {
      "latitude": "38.60291",
      "longitude": "-121.40149"
    },
    "id": "j5461",
    "name": "Jaguar Sacramento",
    "telephone": "8883552331",
    "url": "www.jaguar.niello.com"
  },
  {
    "address": {
      "addressCountry": "US",
      "addressLocality": "Hardeeville",
      "addressRegion": "SC",
      "postalCode": "29927-4309",
      "streetAddress": "145 Drivers Way"
    },
    "geo": {
      "latitude": "32.27218",
      "longitude": "-81.06182"
    },
    "id": "j5533",
    "name": "Jaguar Hilton Head",
    "telephone": "8773953141",
    "url": "www.jaguarhiltonhead.com"
  },
  {
    "address": {
      "addressCountry": "US",
      "addressLocality": "Fort Lauderdale",
      "addressRegion": "FL",
      "postalCode": "33309-2134",
      "streetAddress": "6606 N Andrews Ave"
    },
    "geo": {
      "latitude": "26.2085",
      "longitude": "-80.14447"
    },
    "id": "j0696",
    "name": "Alpine Jaguar",
    "telephone": "8887103692",
    "url": "www.alpinejaguar.net"
  },
  {
    "address": {
      "addressCountry": "US",
      "addressLocality": "Warwick",
      "addressRegion": "RI",
      "postalCode": "02886-4260",
      "streetAddress": "1346 Bald Hill Rd"
    },
    "geo": {
      "latitude": "41.70058",
      "longitude": "87110-7413"
    },
    "id": "j4008",
    "name": "Jake Kaplan's Ltd.",
    "telephone": "8883066521",
    "url": "www.jakekaplansjaguar.net"
  },
  {
    "address": {
      "addressCountry": "US",
      "addressLocality": "Coral Gables",
      "addressRegion": "FL",
      "postalCode": "33146-1403",
      "streetAddress": "200 Bird Road"
    },
    "geo": {
      "latitude": "25.7349",
      "longitude": "-80.25846"
    },
    "id": "j5708",
    "name": "THE COLLECTION",
    "telephone": "8883489324",
    "url": "www.thecollectionjaguar.net"
  },
  {
    "address": {
      "addressCountry": "US",
      "addressLocality": "Thousand Oaks",
      "addressRegion": "CA",
      "postalCode": "91362-3611",
      "streetAddress": "3601 Auto Mall Dr"
    },
    "geo": {
      "latitude": "34.16304",
      "longitude": "-118.83204"
    },
    "id": "j5668",
    "name": "Jaguar Thousand Oaks",
    "telephone": "8883393523",
    "url": "www.jaguarofthousandoaks.net"
  },
  {
    "address": {
      "addressCountry": "US",
      "addressLocality": "Duluth",
      "addressRegion": "GA",
      "postalCode": "30096-4609",
      "streetAddress": "3423 Old Norcross Rd"
    },
    "geo": {
      "latitude": "33.95193",
      "longitude": "-84.14685"
    },
    "id": "j5777",
    "name": "Hennessy Jaguar Gwinnett",
    "telephone": "8883550780",
    "url": "www.hennessyjaguar.com"
  },
  {
    "address": {
      "addressCountry": "US",
      "addressLocality": "Roanoke",
      "addressRegion": "VA",
      "postalCode": "24014-6652",
      "streetAddress": "5000 Franklin Rd SW"
    },
    "geo": {
      "latitude": "37.22423",
      "longitude": "-79.96819"
    },
    "id": "j5319",
    "name": "Jaguar Roanoke",
    "telephone": "8886864917",
    "url": "www.jaguarroanoke.com"
  },
  {
    "address": {
      "addressCountry": "US",
      "addressLocality": "Wexford",
      "addressRegion": "PA",
      "postalCode": "15090-7302",
      "streetAddress": "15035 Perry Hwy"
    },
    "geo": {
      "latitude": "40.65003",
      "longitude": "-80.07866"
    },
    "id": "j5759",
    "name": "Bobby Rahal Jaguar",
    "telephone": "8887891746",
    "url": "www.bobbyrahaljaguar.net"
  },
  {
    "address": {
      "addressCountry": "US",
      "addressLocality": "Indianapolis",
      "addressRegion": "IN",
      "postalCode": "46240-3742",
      "streetAddress": "4620 E 96th Street"
    },
    "geo": {
      "latitude": "39.93022",
      "longitude": "-86.0932"
    },
    "id": "j5631",
    "name": "Jaguar Indianapolis",
    "telephone": "8888973521",
    "url": "www.tomwoodjaguar.com"
  },
  {
    "address": {
      "addressCountry": "US",
      "addressLocality": "Cary",
      "addressRegion": "NC",
      "postalCode": "27511-6038",
      "streetAddress": "1000 Auto Park Blvd"
    },
    "geo": {
      "latitude": "35.74665",
      "longitude": "-78.81039"
    },
    "id": "j5662",
    "name": "Jaguar Cary",
    "telephone": "8884530541",
    "url": "www.leithjaguar.com"
  },
  {
    "address": {
      "addressCountry": "US",
      "addressLocality": "Great Neck",
      "addressRegion": "NY",
      "postalCode": "11021-5205",
      "streetAddress": "732 Northern Blvd"
    },
    "geo": {
      "latitude": "40.78281",
      "longitude": "-73.71466"
    },
    "id": "j0609",
    "name": "Jaguar of Great Neck/Roslyn",
    "telephone": "8886013122",
    "url": "www.jaguarofgreatneck.net"
  },
  {
    "address": {
      "addressCountry": "US",
      "addressLocality": "Freeport",
      "addressRegion": "NY",
      "postalCode": "11520-3443",
      "streetAddress": "146 W Sunrise Hwy"
    },
    "geo": {
      "latitude": "40.6563",
      "longitude": "-73.59061"
    },
    "id": "j5742",
    "name": "Heritage Jaguar of Freeport",
    "telephone": "8883550878",
    "url": "www.heritagejaguaroffreeport.com"
  },
  {
    "address": {
      "addressCountry": "US",
      "addressLocality": "Merritt Island",
      "addressRegion": "FL",
      "postalCode": "32952-2665",
      "streetAddress": "1850 E Merritt Island Cswy"
    },
    "geo": {
      "latitude": "28.3375",
      "longitude": "-80.67602"
    },
    "id": "j5707",
    "name": "Jaguar Merritt Island",
    "telephone": "8882840380",
    "url": "www.jaguarmerrittisland.net"
  },
  {
    "address": {
      "addressCountry": "US",
      "addressLocality": "Kalamazoo",
      "addressRegion": "MI",
      "postalCode": "49009-1936",
      "streetAddress": "5850 Stadium Dr"
    },
    "geo": {
      "latitude": "42.27554",
      "longitude": "-85.61496"
    },
    "id": "j5650",
    "name": "DeNooyer Jaguar",
    "telephone": "8885900774",
    "url": "www.denooyerjaguar.com"
  },
  {
    "address": {
      "addressCountry": "US",
      "addressLocality": "Ocean",
      "addressRegion": "NJ",
      "postalCode": "07712-4546",
      "streetAddress": "807 Highway 35"
    },
    "geo": {
      "latitude": "40.23091",
      "longitude": "-74.03857"
    },
    "id": "j5311",
    "name": "Jaguar Monmouth",
    "telephone": "8884604923",
    "url": "www.jaguarlandrovermonmouth.com"
  },
  {
    "address": {
      "addressCountry": "US",
      "addressLocality": "West Palm Beach",
      "addressRegion": "FL",
      "postalCode": "33401-6401",
      "streetAddress": "915 S Dixie Hwy"
    },
    "geo": {
      "latitude": "26.70508",
      "longitude": "-80.05381"
    },
    "id": "j5320",
    "name": "Jaguar Palm Beach",
    "telephone": "8888551619",
    "url": "www.jaguarpalmbeach.com"
  },
  {
    "address": {
      "addressCountry": "US",
      "addressLocality": "Little Rock",
      "addressRegion": "AR",
      "postalCode": "72210-2842",
      "streetAddress": "25 Colonel Glenn Plaza Dr"
    },
    "geo": {
      "latitude": "34.7023",
      "longitude": "-92.46989"
    },
    "id": "j5382",
    "name": "Jaguar Little Rock",
    "telephone": "8884458307",
    "url": "www.jaguarlittlerock.net"
  },
  {
    "address": {
      "addressCountry": "US",
      "addressLocality": "Solon",
      "addressRegion": "OH",
      "postalCode": "44139-2375",
      "streetAddress": "6137 Kruse Dr"
    },
    "geo": {
      "latitude": "41.39219",
      "longitude": "-81.43963"
    },
    "id": "j5675",
    "name": "Jaguar Cleveland",
    "telephone": "8668599028",
    "url": "www.jaguarofcleveland.com"
  },
  {
    "address": {
      "addressCountry": "US",
      "addressLocality": "Winston Salem",
      "addressRegion": "NC",
      "postalCode": "27127-7146",
      "streetAddress": "425 Silas Creek Pkwy"
    },
    "geo": {
      "latitude": "36.06614",
      "longitude": "-80.2449"
    },
    "id": "j5446",
    "name": "Jaguar Winston Salem",
    "telephone": "8882900361",
    "url": "www.jaguarwinstonsalem.net"
  },
  {
    "address": {
      "addressCountry": "US",
      "addressLocality": "Mills River",
      "addressRegion": "NC",
      "postalCode": "28759-4197",
      "streetAddress": "496 Cardinal Rd"
    },
    "geo": {
      "latitude": "35.40608",
      "longitude": "-82.56324"
    },
    "id": "j5621",
    "name": "Jaguar Asheville",
    "telephone": "8774650581",
    "url": "www.jaguarasheville.net"
  },
  {
    "address": {
      "addressCountry": "US",
      "addressLocality": "San Juan",
      "addressRegion": "TX",
      "postalCode": "78589-4503",
      "streetAddress": "601 E Expressway 83"
    },
    "geo": {
      "latitude": "26.19551",
      "longitude": "-98.14501"
    },
    "id": "j5303",
    "name": "Jaguar San Juan Texas",
    "telephone": "8886966233",
    "url": "www.jaguarsanjuantx.com"
  },
  {
    "address": {
      "addressCountry": "US",
      "addressLocality": "Rochester",
      "addressRegion": "NY",
      "postalCode": "14625-2317",
      "streetAddress": "770 Panorama Trl S"
    },
    "geo": {
      "latitude": "43.12963",
      "longitude": "-77.47405"
    },
    "id": "j5299",
    "name": "Jaguar Rochester",
    "telephone": "8776930400",
    "url": "www.piehlerjaguarlandrover.com"
  },
  {
    "address": {
      "addressCountry": "US",
      "addressLocality": "Colonie",
      "addressRegion": "NY",
      "postalCode": "12205-4607",
      "streetAddress": "347 New Karner Rd"
    },
    "geo": {
      "latitude": "42.72946",
      "longitude": "-73.85343"
    },
    "id": "j5381",
    "name": "Jaguar Albany",
    "telephone": "8665989561",
    "url": "www.albanyjaguar.com"
  },
  {
    "address": {
      "addressCountry": "US",
      "addressLocality": "Elmsford",
      "addressRegion": "NY",
      "postalCode": "10523-3412",
      "streetAddress": "258 E Main St"
    },
    "geo": {
      "latitude": "41.04979",
      "longitude": "-73.79877"
    },
    "id": "j5670",
    "name": "White Plains Jaguar",
    "telephone": "8883480541",
    "url": "www.whiteplainsjaguar.net"
  },
  {
    "address": {
      "addressCountry": "US",
      "addressLocality": "Los Angeles",
      "addressRegion": "CA",
      "postalCode": "90069-3109",
      "streetAddress": "9176 W Sunset Blvd"
    },
    "geo": {
      "latitude": "34.09953",
      "longitude": "-118.33056"
    },
    "id": "j5781",
    "name": "Hornburg Jaguar Los Angeles",
    "telephone": "8774289386",
    "url": "www.hornburgjaguar.com"
  },
  {
    "address": {
      "addressCountry": "US",
      "addressLocality": "Brentwood",
      "addressRegion": "TN",
      "postalCode": "37027-5066",
      "streetAddress": "3 Cadillac Dr"
    },
    "geo": {
      "latitude": "36.03579",
      "longitude": "-86.79699"
    },
    "id": "j5323",
    "name": "Jaguar Nashville",
    "telephone": "8883051623",
    "url": "www.jaguarnashville.com"
  },
  {
    "address": {
      "addressCountry": "US",
      "addressLocality": "Norwood",
      "addressRegion": "MA",
      "postalCode": "02062-4919",
      "streetAddress": "449 Neponset St"
    },
    "geo": {
      "latitude": "42.19366",
      "longitude": "-71.18415"
    },
    "id": "j5598",
    "name": "Jaguar Norwood",
    "telephone": "8883140915",
    "url": "www.jaguarnorwood.net"
  },
  {
    "address": {
      "addressCountry": "US",
      "addressLocality": "Lake Bluff",
      "addressRegion": "IL",
      "postalCode": "60044-2211",
      "streetAddress": "150 Skokie Hwy"
    },
    "geo": {
      "latitude": "42.27228",
      "longitude": "-87.86685"
    },
    "id": "j5756",
    "name": "Imperial Motors Jaguar of Lake Bluff",
    "telephone": "8774418754",
    "url": "www.imperialmotorsjaguaroflakebluff.com"
  },
  {
    "address": {
      "addressCountry": "US",
      "addressLocality": "Salt Lake City",
      "addressRegion": "UT",
      "postalCode": "84111-3521",
      "streetAddress": "543 S State St"
    },
    "geo": {
      "latitude": "40.75742",
      "longitude": "-111.8883"
    },
    "id": "j5671",
    "name": "Ken Garff Jaguar",
    "telephone": "8884429042",
    "url": "www.kengarffjaguar.net"
  },
  {
    "address": {
      "addressCountry": "US",
      "addressLocality": "Alpharetta",
      "addressRegion": "GA",
      "postalCode": "30009-4710",
      "streetAddress": "1505 Mansell Rd"
    },
    "geo": {
      "latitude": "34.04201",
      "longitude": "-84.32384"
    },
    "id": "j5304",
    "name": "Jaguar North Point",
    "telephone": "8666274024",
    "url": "www.jaguarnorthpoint.com"
  },
  {
    "address": {
      "addressCountry": "US",
      "addressLocality": "Woodbridge",
      "addressRegion": "CT",
      "postalCode": "06525-2201",
      "streetAddress": "185 Amity Road"
    },
    "geo": {
      "latitude": "41.3402",
      "longitude": "-72.98172"
    },
    "id": "j5727",
    "name": "Crest Jaguar of Woodbridge",
    "telephone": "8884346975",
    "url": "www.crestjaguarofwoodbridge.com"
  },
  {
    "address": {
      "addressCountry": "US",
      "addressLocality": "Fife",
      "addressRegion": "WA",
      "postalCode": "98424-1113",
      "streetAddress": "1601 40th Avenue Court E"
    },
    "geo": {
      "latitude": "47.2426",
      "longitude": "-122.37473"
    },
    "id": "j5760",
    "name": "Jaguar Tacoma",
    "telephone": "8776489526",
    "url": "www.jaguaroftacoma.com"
  },
  {
    "address": {
      "addressCountry": "US",
      "addressLocality": "Shreveport",
      "addressRegion": "LA",
      "postalCode": "71105-5630",
      "streetAddress": "1221 E Bert Kouns Industrial Blvd"
    },
    "geo": {
      "latitude": "32.42037",
      "longitude": "-93.7213"
    },
    "id": "j5773",
    "name": "Jaguar of Shreveport",
    "telephone": "8774665549",
    "url": "www.jaguarofshreveport.net"
  },
  {
    "address": {
      "addressCountry": "US",
      "addressLocality": "Saint Petersburg",
      "addressRegion": "FL",
      "postalCode": "33714-1251",
      "streetAddress": "6001 34th Street N"
    },
    "geo": {
      "latitude": "27.8175",
      "longitude": "-82.67549"
    },
    "id": "j5697",
    "name": "Crown Jaguar",
    "telephone": "8885238021",
    "url": "www.crownjaguarsaintpetersburg.com"
  },
  {
    "address": {
      "addressCountry": "US",
      "addressLocality": "Fort Worth",
      "addressRegion": "TX",
      "postalCode": "76107-1338",
      "streetAddress": "3000 White Settlement Road"
    },
    "geo": {
      "latitude": "32.75909",
      "longitude": "-97.36046"
    },
    "id": "j5672",
    "name": "Autobahn Motorcars",
    "telephone": "8887453768",
    "url": "www.jaguarfortworth.com"
  }
]